{
"type": "FeatureCollection",
"crs": { "type": "name", "properties": { "name": "urn:ogc:def:crs:OGC:1.3:CRS84" } },
"features": [
{ "type": "Feature", "properties": { "Locatienummer": 100101, "Organisatie": "Amsterdam UMC", "Name": "AMC", "Type": "Academisch ziekenhuis", "Plaats": "Amsterdam Zuidoost", "Straat": "Meibergdreef", "Nummer": "9", "Postcode": "1105 AZ" }, "geometry": { "type": "Point", "coordinates": [ 4.957392651652928, 52.294197055738138 ] } },
{ "type": "Feature", "properties": { "Locatienummer": 100102, "Organisatie": "Amsterdam UMC", "Name": "Emma Kinderziekenhuis", "Type": "Kinderziekenhuis", "Plaats": "Amsterdam", "Straat": "Meibergdreef", "Nummer": "9", "Postcode": "1105 AZ" }, "geometry": { "type": "Point", "coordinates": [ 4.957912700816269, 52.294989871993593 ] } },
{ "type": "Feature", "properties": { "Locatienummer": 100103, "Organisatie": "Amsterdam UMC", "Name": "Vumc", "Type": "Academisch ziekenhuis", "Plaats": "Amsterdam", "Straat": "de Boelelaan", "Nummer": "1117", "Postcode": "1081 HV" }, "geometry": { "type": "Point", "coordinates": [ 4.859829946777266, 52.334615971294014 ] } },
{ "type": "Feature", "properties": { "Locatienummer": 100201, "Organisatie": "Maastricht UMC+", "Name": "Maastricht UMC+", "Type": "Academisch ziekenhuis", "Plaats": "Maastricht", "Straat": "P. Debijelaan", "Nummer": "25", "Postcode": "6229 HX" }, "geometry": { "type": "Point", "coordinates": [ 5.713165335059594, 50.835193953600616 ] } },
{ "type": "Feature", "properties": { "Locatienummer": 100202, "Organisatie": "Maastricht UMC+", "Name": "Medisch centrum Annadal", "Type": "Buitenpolikliniek", "Plaats": "Maastricht", "Straat": "Brouwersweg", "Nummer": "100", "Postcode": "6216 EG" }, "geometry": { "type": "Point", "coordinates": [ 5.669316794109724, 50.846680184872149 ] } },
{ "type": "Feature", "properties": { "Locatienummer": 100203, "Organisatie": "Maastricht UMC+", "Name": "Stadspoli Oost", "Type": "Buitenpolikliniek", "Plaats": "Maastricht", "Straat": "Vijverdalseweg", "Nummer": "2-4", "Postcode": "6224 NB" }, "geometry": { "type": "Point", "coordinates": [ 5.709299068519688, 50.846683531350848 ] } },
{ "type": "Feature", "properties": { "Locatienummer": 100204, "Organisatie": "Maastricht UMC+", "Name": "Stadspoli West", "Type": "Buitenpolikliniek", "Plaats": "Maastricht", "Straat": "Clavecymbelstraat", "Nummer": "71A-77A", "Postcode": "6217 CS" }, "geometry": { "type": "Point", "coordinates": [ 5.667476430107115, 50.859304964081424 ] } },
{ "type": "Feature", "properties": { "Locatienummer": 100301, "Organisatie": "Albert Schweitzer Ziekenhuis", "Name": "Albert Schweitzer Ziekenhuis Dordwijk", "Type": "Algemeen ziekenhuis", "Plaats": "Dordrecht", "Straat": "A. Schweitzerplaats", "Nummer": " 25", "Postcode": "3318 AT" }, "geometry": { "type": "Point", "coordinates": [ 4.682400939104256, 51.791991774640515 ] } },
{ "type": "Feature", "properties": { "Locatienummer": 100302, "Organisatie": "Albert Schweitzer Ziekenhuis", "Name": "Albert Schweitzer Ziekenhuis Zwijndrecht", "Type": "Algemeen ziekenhuis", "Plaats": "Zwijndrecht", "Straat": "Langeweg", "Nummer": "336", "Postcode": "3331 LZ" }, "geometry": { "type": "Point", "coordinates": [ 4.629569569451043, 51.827140929544086 ] } },
{ "type": "Feature", "properties": { "Locatienummer": 100303, "Organisatie": "Albert Schweitzer Ziekenhuis", "Name": "Albert Schweitzer Ziekenhuis Sliedrecht", "Type": "Algemeen ziekenhuis", "Plaats": "Sliedrecht", "Straat": "Stationspark", "Nummer": "400", "Postcode": "3364 DA" }, "geometry": { "type": "Point", "coordinates": [ 4.777245297608654, 51.828261873537798 ] } },
{ "type": "Feature", "properties": { "Locatienummer": 100306, "Organisatie": "Albert Schweitzer Ziekenhuis", "Name": "Albert Schweitzer Ziekenhuis Buitenpoli GOED Ridderkerk", "Type": "Buitenpolikliniek", "Plaats": "Ridderkerk", "Straat": "Jan Luykenstraat", "Nummer": "8", "Postcode": "2985 BV" }, "geometry": { "type": "Point", "coordinates": [ 4.602507068991232, 51.866729128082838 ] } },
{ "type": "Feature", "properties": { "Locatienummer": 100401, "Organisatie": "Rijnstate Ziekenhuis", "Name": "Rijnstate Ziekenhuis", "Type": "Algemeen ziekenhuis", "Plaats": "Arnhem", "Straat": "Wagnerlaan", "Nummer": "55", "Postcode": "6815 AD" }, "geometry": { "type": "Point", "coordinates": [ 5.909478418575119, 52.000604698087834 ] } },
{ "type": "Feature", "properties": { "Locatienummer": 100402, "Organisatie": "Rijnstate Ziekenhuis", "Name": "Rijnstate Ziekenhuis Zevenaar", "Type": "Algemeen ziekenhuis", "Plaats": "Zevenaar", "Straat": "Hunneveldweg", "Nummer": "14A", "Postcode": "6903 ZN" }, "geometry": { "type": "Point", "coordinates": [ 6.070066214083613, 51.9427413475319 ] } },
{ "type": "Feature", "properties": { "Locatienummer": 100403, "Organisatie": "Rijnstate Ziekenhuis", "Name": "Rijnstate Polikliniek Arnhem-zuid", "Type": "Buitenpolikliniek", "Plaats": "Arnhem", "Straat": "Marga Klompélaan", "Nummer": "6", "Postcode": "6836 BH" }, "geometry": { "type": "Point", "coordinates": [ 5.884648624596915, 51.949353012595054 ] } },
{ "type": "Feature", "properties": { "Locatienummer": 100404, "Organisatie": "Rijnstate Ziekenhuis", "Name": "Rijnstate Ziekenhuis Velp", "Type": "Buitenpolikliniek", "Plaats": "Velp Gld", "Straat": "President Kennedylaan", "Nummer": "100", "Postcode": "6883 AZ" }, "geometry": { "type": "Point", "coordinates": [ 5.976482189130078, 51.986347184131503 ] } },
{ "type": "Feature", "properties": { "Locatienummer": 100501, "Organisatie": "Amphia Ziekenhuis", "Name": "Amphia Ziekenhuis Breda Molengracht", "Type": "Algemeen ziekenhuis", "Plaats": "Breda", "Straat": "Molengracht", "Nummer": "21", "Postcode": "4818 CK" }, "geometry": { "type": "Point", "coordinates": [ 4.797324672527418, 51.581849937177907 ] } },
{ "type": "Feature", "properties": { "Locatienummer": 100502, "Organisatie": "Amphia Ziekenhuis", "Name": "Amphia Ziekenhuis Breda Langendijk", "Type": "Algemeen ziekenhuis", "Plaats": "Breda", "Straat": "Langendijk", "Nummer": "75", "Postcode": "4819 EV" }, "geometry": { "type": "Point", "coordinates": [ 4.763132393468004, 51.573312868528959 ] } },
{ "type": "Feature", "properties": { "Locatienummer": 100503, "Organisatie": "Amphia Ziekenhuis", "Name": "Amphia Ziekenhuis Oosterhout", "Type": "Algemeen ziekenhuis", "Plaats": "Oosterhout", "Straat": "Pasteurlaan", "Nummer": "9", "Postcode": "4901 DH" }, "geometry": { "type": "Point", "coordinates": [ 4.87213317701752, 51.649232167671407 ] } },
{ "type": "Feature", "properties": { "Locatienummer": 100504, "Organisatie": "Amphia Ziekenhuis", "Name": "Amphia Ziekenhuis Etten-Leur", "Type": "Buitenpolikliniek", "Plaats": "Etten-Leur", "Straat": "Trivium", "Nummer": "76", "Postcode": "4873 LP" }, "geometry": { "type": "Point", "coordinates": [ 4.661979956840483, 51.569834787691462 ] } },
{ "type": "Feature", "properties": { "Locatienummer": 100601, "Organisatie": "Antonius Zorggroep", "Name": "Antonius Ziekenhuis Sneek", "Type": "Algemeen ziekenhuis", "Plaats": "Sneek", "Straat": "Bolswarderbaan", "Nummer": " 1", "Postcode": "8601 ZK" }, "geometry": { "type": "Point", "coordinates": [ 5.64286705982166, 53.034689007320857 ] } },
{ "type": "Feature", "properties": { "Locatienummer": 100602, "Organisatie": "Antonius Zorggroep", "Name": "Antonius Ziekenhuis Emmeloord", "Type": "Buitenpolikliniek", "Plaats": "Emmeloord", "Straat": "Urkerweg", "Nummer": "4", "Postcode": "8303 BX" }, "geometry": { "type": "Point", "coordinates": [ 5.73367103979596, 52.703755082993972 ] } },
{ "type": "Feature", "properties": { "Locatienummer": 100604, "Organisatie": "Antonius Zorggroep", "Name": "Emmeloord Dokter Jansencentrum", "Type": "Buitenpolikliniek", "Plaats": "Emmeloord", "Straat": "Urkerweg", "Nummer": "1", "Postcode": "8303 BX" }, "geometry": { "type": "Point", "coordinates": [ 5.743690801122407, 52.707841501646641 ] } },
{ "type": "Feature", "properties": { "Locatienummer": 100701, "Organisatie": "Zuyderland Medisch Centrum", "Name": "Zuyderland Medisch Centrum Heerlen", "Type": "Algemeen ziekenhuis", "Plaats": "Heerlen", "Straat": "H. Dunantstraat", "Nummer": "5", "Postcode": "6419 PC" }, "geometry": { "type": "Point", "coordinates": [ 5.976891188184546, 50.868657840847021 ] } },
{ "type": "Feature", "properties": { "Locatienummer": 100702, "Organisatie": "Zuyderland Medisch Centrum", "Name": "Zuyderland Medisch Centrum Brunssum", "Type": "Buitenpolikliniek", "Plaats": "Brunssum", "Straat": "Prins Hendriklaan", "Nummer": "376", "Postcode": "6443 AE" }, "geometry": { "type": "Point", "coordinates": [ 5.978392394786227, 50.941712637728031 ] } },
{ "type": "Feature", "properties": { "Locatienummer": 100703, "Organisatie": "Zuyderland Medisch Centrum", "Name": "Zuyderland Medisch Centrum Kerkrade", "Type": "Buitenpolikliniek", "Plaats": "Kerkrade", "Straat": "Wijngracht", "Nummer": "45", "Postcode": "6461 AL" }, "geometry": { "type": "Point", "coordinates": [ 6.060963758772683, 50.866131058987541 ] } },
{ "type": "Feature", "properties": { "Locatienummer": 100704, "Organisatie": "Zuyderland Medisch Centrum", "Name": "Zuyderland Medisch Centrum Sittard-Geleen", "Type": "Algemeen ziekenhuis", "Plaats": "Sittard-Geleen", "Straat": "Dr. H. van der Hoffplein", "Nummer": "1", "Postcode": "6162 BG" }, "geometry": { "type": "Point", "coordinates": [ 5.844594179964952, 50.983191236651457 ] } },
{ "type": "Feature", "properties": { "Locatienummer": 100705, "Organisatie": "Zuyderland Medisch Centrum", "Name": "Zuyderland Medisch Centrum Buitenpoli De Egthe", "Type": "Buitenpolikliniek", "Plaats": "Echt", "Straat": "De Egthe", "Nummer": "1", "Postcode": "6101 EX" }, "geometry": { "type": "Point", "coordinates": [ 5.873511256353657, 51.105637469259008 ] } },
{ "type": "Feature", "properties": { "Locatienummer": 100801, "Organisatie": "BovenIJ Ziekenhuis", "Name": "BovenIJ Ziekenhuis", "Type": "Algemeen ziekenhuis", "Plaats": "Amsterdam", "Straat": "Statenjachtstraat", "Nummer": "1", "Postcode": "1034 CS" }, "geometry": { "type": "Point", "coordinates": [ 4.922385526331539, 52.405179987124761 ] } },
{ "type": "Feature", "properties": { "Locatienummer": 100901, "Organisatie": "Canisius-Wilhelmina Ziekenhuis", "Name": "Canisius-Wilhelmina Ziekenhuis", "Type": "Algemeen ziekenhuis", "Plaats": "Nijmegen", "Straat": "Weg door Jonkerbos", "Nummer": "100", "Postcode": "6532 SZ" }, "geometry": { "type": "Point", "coordinates": [ 5.831210904827558, 51.817311575978607 ] } },
{ "type": "Feature", "properties": { "Locatienummer": 100902, "Organisatie": "Canisius-Wilhelmina Ziekenhuis", "Name": "Canisius-Wilhelmina Ziekenhuis Waalsprong", "Type": "Buitenpolikliniek", "Plaats": "Nijmegen", "Straat": "Carbatinastraat", "Nummer": "3", "Postcode": "6515 GM" }, "geometry": { "type": "Point", "coordinates": [ 5.84531311292614, 51.881992203497674 ] } },
{ "type": "Feature", "properties": { "Locatienummer": 100903, "Organisatie": "Canisius-Wilhelmina Ziekenhuis", "Name": "Canisius-Wilhelmina Ziekenhuis Druten", "Type": "Buitenpolikliniek", "Plaats": "Druten", "Straat": "Kerkeland", "Nummer": "3", "Postcode": "6651 KN" }, "geometry": { "type": "Point", "coordinates": [ 5.615053049514016, 51.888012955712739 ] } },
{ "type": "Feature", "properties": { "Locatienummer": 100905, "Organisatie": "Canisius-Wilhelmina Ziekenhuis", "Name": "Canisius-Wilhelmina Polikliniek Jonkerbosch", "Type": "Buitenpolikliniek", "Plaats": "Nijmegen", "Straat": "Burgemeester Daleslaan", "Nummer": "27", "Postcode": "6532 CL" }, "geometry": { "type": "Point", "coordinates": [ 5.832620567214454, 51.819067974068751 ] } },
{ "type": "Feature", "properties": { "Locatienummer": 101001, "Organisatie": "Catharina Ziekenhuis", "Name": "Catharina Ziekenhuis", "Type": "Algemeen ziekenhuis", "Plaats": "Eindhoven", "Straat": "Michelangelolaan", "Nummer": "2", "Postcode": "5623 EJ" }, "geometry": { "type": "Point", "coordinates": [ 5.470710583130513, 51.465592204808459 ] } },
{ "type": "Feature", "properties": { "Locatienummer": 101301, "Organisatie": "Alrijne Zorggroep", "Name": "Alrijne Leiden", "Type": "Algemeen ziekenhuis", "Plaats": "Leiden", "Straat": "Houtlaan", "Nummer": "55", "Postcode": "2334 CK" }, "geometry": { "type": "Point", "coordinates": [ 4.482724878879812, 52.174023958448132 ] } },
{ "type": "Feature", "properties": { "Locatienummer": 101303, "Organisatie": "Alrijne Zorggroep", "Name": "Alrijne Ziekenhuis Buitenlocatie  Katwijk", "Type": "Buitenpolikliniek", "Plaats": "Katwijk", "Straat": "Randweg", "Nummer": "47", "Postcode": "2225 PJ" }, "geometry": { "type": "Point", "coordinates": [ 4.404630037398108, 52.199762690157655 ] } },
{ "type": "Feature", "properties": { "Locatienummer": 101304, "Organisatie": "Alrijne Zorggroep", "Name": "Alrijne Ziekenhuis Buitenlocatie Sassenheim", "Type": "Buitenpolikliniek", "Plaats": "Sassenheim", "Straat": "Jan van Brabantweg", "Nummer": "33", "Postcode": "2171 HE" }, "geometry": { "type": "Point", "coordinates": [ 4.523897565858439, 52.229700255500077 ] } },
{ "type": "Feature", "properties": { "Locatienummer": 101305, "Organisatie": "Alrijne Zorggroep", "Name": "Alrijne Ziekenhuis Leiderdorp", "Type": "Algemeen ziekenhuis", "Plaats": "Leiderdorp", "Straat": "Simon Smitweg", "Nummer": "1", "Postcode": "2353 GA" }, "geometry": { "type": "Point", "coordinates": [ 4.540833159477472, 52.156523278654603 ] } },
{ "type": "Feature", "properties": { "Locatienummer": 101306, "Organisatie": "Alrijne Zorggroep", "Name": "Alrijne Ziekenhuis Alphen aan den Rijn", "Type": "Buitenpolikliniek", "Plaats": "Alphen a\/d Rijn", "Straat": "Metoorlaan", "Nummer": "4", "Postcode": "2402 WC" }, "geometry": { "type": "Point", "coordinates": [ 4.661663707763059, 52.14272229893141 ] } },
{ "type": "Feature", "properties": { "Locatienummer": 101401, "Organisatie": "Diakonessenhuis", "Name": "Diakonessenhuis Utrecht", "Type": "Algemeen ziekenhuis", "Plaats": "Utrecht", "Straat": "Bosboomstraat", "Nummer": "1", "Postcode": "3582 KE" }, "geometry": { "type": "Point", "coordinates": [ 5.138264422882751, 52.081558745031138 ] } },
{ "type": "Feature", "properties": { "Locatienummer": 101402, "Organisatie": "Diakonessenhuis", "Name": "Diakonessenhuis Zeist", "Type": "Algemeen ziekenhuis", "Plaats": "Zeist", "Straat": "Jagersingel", "Nummer": "1", "Postcode": "3707 JA" }, "geometry": { "type": "Point", "coordinates": [ 5.262181684336831, 52.091273555937065 ] } },
{ "type": "Feature", "properties": { "Locatienummer": 101403, "Organisatie": "Diakonessenhuis", "Name": "Diakonessenhuis Buitenpolikliniek Doorn", "Type": "Buitenpolikliniek", "Plaats": "Doorn", "Straat": "Bergweg", "Nummer": "2", "Postcode": "3941 RB" }, "geometry": { "type": "Point", "coordinates": [ 5.351483757911254, 52.035114002782251 ] } },
{ "type": "Feature", "properties": { "Locatienummer": 101701, "Organisatie": "Elkerliek Ziekenhuis", "Name": "Elkerliek Ziekenhuis Helmond", "Type": "Algemeen ziekenhuis", "Plaats": "Helmond", "Straat": "Wesselmanlaan", "Nummer": "25", "Postcode": "5707 HA" }, "geometry": { "type": "Point", "coordinates": [ 5.642966259588024, 51.4831751503419 ] } },
{ "type": "Feature", "properties": { "Locatienummer": 101702, "Organisatie": "Elkerliek Ziekenhuis", "Name": "Elkerliek Ziekenhuis Deurne", "Type": "Buitenpolikliniek", "Plaats": "Deurne", "Straat": "Dunantweg", "Nummer": "16", "Postcode": "5751 CB" }, "geometry": { "type": "Point", "coordinates": [ 5.790988175987525, 51.468356805727566 ] } },
{ "type": "Feature", "properties": { "Locatienummer": 101703, "Organisatie": "Elkerliek Ziekenhuis", "Name": "Elkerliek Ziekenhuis Gemert", "Type": "Buitenpolikliniek", "Plaats": "Gemert", "Straat": "Julianastraat", "Nummer": "2", "Postcode": "5421 DB" }, "geometry": { "type": "Point", "coordinates": [ 5.685397059384217, 51.554138915122124 ] } },
{ "type": "Feature", "properties": { "Locatienummer": 101704, "Organisatie": "Elkerliek Ziekenhuis", "Name": "Elkerliek Ziekenhuis Polikliniek Asten", "Type": "Buitenpolikliniek", "Plaats": "Asten", "Straat": "Floralaan", "Nummer": "30", "Postcode": "5721  CV" }, "geometry": { "type": "Point", "coordinates": [ 5.753251035838142, 51.405479129424364 ] } },
{ "type": "Feature", "properties": { "Locatienummer": 101801, "Organisatie": "Erasmus Medisch Centrum", "Name": "Erasmus Medisch Centrum", "Type": "Academisch ziekenhuis", "Plaats": "Rotterdam", "Straat": "Dr. Molewaterplein", "Nummer": "40", "Postcode": "3015 GD" }, "geometry": { "type": "Point", "coordinates": [ 4.468068036761641, 51.910940561823281 ] } },
{ "type": "Feature", "properties": { "Locatienummer": 101802, "Organisatie": "Erasmus Medisch Centrum", "Name": "Erasmus Medisch Centrum Sophia kinderziekenhuis", "Type": "Kinderziekenhuis", "Plaats": "Rotterdam", "Straat": "Wytemaweg", "Nummer": "80", "Postcode": "3015 CN" }, "geometry": { "type": "Point", "coordinates": [ 4.469606040252216, 51.911779546057289 ] } },
{ "type": "Feature", "properties": { "Locatienummer": 101803, "Organisatie": "Erasmus Medisch Centrum", "Name": "Erasmus Medisch Centrum Kanker Instituut", "Type": "Algemeen ziekenhuis", "Plaats": "Rotterdam", "Straat": "Groene hilledijk", "Nummer": "301", "Postcode": "3075 EA" }, "geometry": { "type": "Point", "coordinates": [ 4.504954018089355, 51.88581209737243 ] } },
{ "type": "Feature", "properties": { "Locatienummer": 101804, "Organisatie": "Admiraal De Ruyter Ziekenhuis", "Name": "Admiraal De Ruyter Ziekenhuis Goes", "Type": "Algemeen ziekenhuis", "Plaats": "Goes", "Straat": "'s-Gravenpolderseweg", "Nummer": "114", "Postcode": "4462 RA" }, "geometry": { "type": "Point", "coordinates": [ 3.909216422711228, 51.484645338001108 ] } },
{ "type": "Feature", "properties": { "Locatienummer": 101805, "Organisatie": "Admiraal De Ruyter Ziekenhuis", "Name": "Admiraal De Ruyter Ziekenhuis Middelburg Kalverstraat", "Type": "Buitenpolikliniek", "Plaats": "Middelburg", "Straat": "Kalverstraat", "Nummer": "1", "Postcode": "4331 LZ" }, "geometry": { "type": "Point", "coordinates": [ 3.610314578342861, 51.496498961269204 ] } },
{ "type": "Feature", "properties": { "Locatienummer": 101807, "Organisatie": "Admiraal De Ruyter Ziekenhuis", "Name": "Admiraal De Ruyter Ziekenhuis Vlissingen", "Type": "Algemeen ziekenhuis", "Plaats": "Vlissingen", "Straat": "Koudekerkseweg", "Nummer": "88", "Postcode": "4382 EE" }, "geometry": { "type": "Point", "coordinates": [ 3.56528544014497, 51.451274501941903 ] } },
{ "type": "Feature", "properties": { "Locatienummer": 101808, "Organisatie": "Admiraal De Ruyter Ziekenhuis", "Name": "Admiraal De Ruyter Ziekenhuis Zierikzee", "Type": "Buitenpolikliniek", "Plaats": "Zierikzee", "Straat": "Koning Gustaafweg", "Nummer": "2", "Postcode": "4301 NP" }, "geometry": { "type": "Point", "coordinates": [ 3.928357491856138, 51.656403173972208 ] } },
{ "type": "Feature", "properties": { "Locatienummer": 101901, "Organisatie": "Flevoziekenhuis", "Name": "Flevoziekenhuis", "Type": "Algemeen ziekenhuis", "Plaats": "Almere", "Straat": "Hospitaalweg", "Nummer": "1", "Postcode": "1315 RA" }, "geometry": { "type": "Point", "coordinates": [ 5.223326673362872, 52.369219269404383 ] } },
{ "type": "Feature", "properties": { "Locatienummer": 101902, "Organisatie": "Flevoziekenhuis", "Name": "Flevoland ziekenhuis Buitenpoli Almere Poort", "Type": "Buitenpolikliniek", "Plaats": "Almere", "Straat": "Beneluxlaan", "Nummer": "573-579", "Postcode": "\t1363 BJ" }, "geometry": { "type": "Point", "coordinates": [ 5.154295796948334, 52.347910849109837 ] } },
{ "type": "Feature", "properties": { "Locatienummer": 102001, "Organisatie": "Bravis Ziekenhuis", "Name": "Bravis Ziekenhuis Bergen op Zoom", "Type": "Algemeen ziekenhuis", "Plaats": "Roosendaal", "Straat": "Boerhaavelaan", "Nummer": "25", "Postcode": "4708 AE" }, "geometry": { "type": "Point", "coordinates": [ 4.437323283245595, 51.528960752593001 ] } },
{ "type": "Feature", "properties": { "Locatienummer": 102002, "Organisatie": "Bravis Ziekenhuis", "Name": "Bravis Ziekenhuis Oudenbosch Medisch Centrum", "Type": "Buitenpolikliniek", "Plaats": "Oudenbosch", "Straat": "West-Vaardeke", "Nummer": "11A", "Postcode": "4731 MA" }, "geometry": { "type": "Point", "coordinates": [ 4.524151617380312, 51.589744093238771 ] } },
{ "type": "Feature", "properties": { "Locatienummer": 102003, "Organisatie": "Bravis Ziekenhuis", "Name": "Bravis Ziekenhuis Polikliniek Etten-Leur", "Type": "Buitenpolikliniek", "Plaats": "Etten-Leur", "Straat": "Schoonhout", "Nummer": "215", "Postcode": "4872 MC" }, "geometry": { "type": "Point", "coordinates": [ 4.650061555171692, 51.571854665109093 ] } },
{ "type": "Feature", "properties": { "Locatienummer": 102004, "Organisatie": "Bravis Ziekenhuis", "Name": "Bravis Ziekenhuis Polikliniek Steenbergen", "Type": "Buitenpolikliniek", "Plaats": "Steenbergen", "Straat": "De Wei", "Nummer": "26", "Postcode": "4651 EZ" }, "geometry": { "type": "Point", "coordinates": [ 4.319997319541569, 51.586638834229966 ] } },
{ "type": "Feature", "properties": { "Locatienummer": 102005, "Organisatie": "Bravis Ziekenhuis", "Name": "Bravis Ziekenhuis Roosendaal", "Type": "Algemeen ziekenhuis", "Plaats": "Bergen Op Zoom", "Straat": "Boerhaaveplein", "Nummer": "1", "Postcode": "4624 VT" }, "geometry": { "type": "Point", "coordinates": [ 4.314216686487454, 51.486885742467443 ] } },
{ "type": "Feature", "properties": { "Locatienummer": 102101, "Organisatie": "Gelre Ziekenhuizen", "Name": "Gelre Ziekenhuizen Zutphen", "Type": "Algemeen ziekenhuis", "Plaats": "Zutphen", "Straat": "Den Elterweg", "Nummer": "77", "Postcode": "7207 AE" }, "geometry": { "type": "Point", "coordinates": [ 6.217603754783668, 52.122892139840388 ] } },
{ "type": "Feature", "properties": { "Locatienummer": 102103, "Organisatie": "Gelre Ziekenhuizen", "Name": "Gelre Ziekenhuizen Apeldoorn", "Type": "Algemeen ziekenhuis", "Plaats": "Apeldoorn", "Straat": "A. Schweitzerlaan", "Nummer": "31", "Postcode": "7334 DZ" }, "geometry": { "type": "Point", "coordinates": [ 5.947403330443934, 52.181407772765134 ] } },
{ "type": "Feature", "properties": { "Locatienummer": 102104, "Organisatie": "Gelre Ziekenhuizen", "Name": "Gelre Ziekenhuizen Polikliniek Lochem", "Type": "Buitenpolikliniek", "Plaats": "Lochem", "Straat": "Zwiepseweg", "Nummer": "105", "Postcode": "7241 GR" }, "geometry": { "type": "Point", "coordinates": [ 6.423573323414766, 52.156073938403622 ] } },
{ "type": "Feature", "properties": { "Locatienummer": 102105, "Organisatie": "Gelre Ziekenhuizen", "Name": "Gelre Ziekenhuizen Polikliniek Epe", "Type": "Buitenpolikliniek", "Plaats": "Epe", "Straat": "Willem Tellstraat", "Nummer": "17", "Postcode": "8162 ET" }, "geometry": { "type": "Point", "coordinates": [ 5.981466739560721, 52.349873206748406 ] } },
{ "type": "Feature", "properties": { "Locatienummer": 102106, "Organisatie": "Gelre Ziekenhuizen", "Name": "Gelre Ziekenhuizen Polikliniek Dieren", "Type": "Buitenpolikliniek", "Plaats": "Dieren", "Straat": "Wilhelminaweg", "Nummer": "80AA", "Postcode": "6951 BR" }, "geometry": { "type": "Point", "coordinates": [ 6.098562936311628, 52.051341591487386 ] } },
{ "type": "Feature", "properties": { "Locatienummer": 102107, "Organisatie": "Gelre Ziekenhuizen", "Name": "Gelre Ziekenhuis Polikliniek Doesburg", "Type": "Buitenpolikliniek", "Plaats": "Doesburg", "Straat": "De Linie", "Nummer": "3b", "Postcode": "6982 AZ" }, "geometry": { "type": "Point", "coordinates": [ 6.134516887499586, 52.0095293592302 ] } },
{ "type": "Feature", "properties": { "Locatienummer": 102301, "Organisatie": "Groene Hart Ziekenhuis", "Name": "Groene Hart Ziekenhuis Bleulandlocatie", "Type": "Algemeen ziekenhuis", "Plaats": "Gouda", "Straat": "Bleulandweg", "Nummer": "10", "Postcode": "2803 HH" }, "geometry": { "type": "Point", "coordinates": [ 4.705758032814445, 52.020807158338251 ] } },
{ "type": "Feature", "properties": { "Locatienummer": 102303, "Organisatie": "Groene Hart Ziekenhuis", "Name": "Groene Hart Ziekenhuis Polikliniek Zuidplas", "Type": "Buitenpolikliniek", "Plaats": "Nieuwerkerk a\/d IJssel", "Straat": "Doortocht", "Nummer": "40", "Postcode": "2914 KA" }, "geometry": { "type": "Point", "coordinates": [ 4.617777618031558, 51.967151958304264 ] } },
{ "type": "Feature", "properties": { "Locatienummer": 102304, "Organisatie": "Groene Hart Ziekenhuis", "Name": "Groene Hart Ziekenhuis Polikliniek Schoonhoven", "Type": "Buitenpolikliniek", "Plaats": "Schoonhoven", "Straat": "Oranjeplaats", "Nummer": "21", "Postcode": "2871 TL" }, "geometry": { "type": "Point", "coordinates": [ 4.846758400993232, 51.945829988128381 ] } },
{ "type": "Feature", "properties": { "Locatienummer": 102305, "Organisatie": "Groene Hart Ziekenhuis", "Name": "Groene Hart Ziekenhuis Bodegraven", "Type": "Buitenpolikliniek", "Plaats": "Bodegraven", "Straat": "Willem de Zwijgerstraat", "Nummer": "9", "Postcode": "2411 VT" }, "geometry": { "type": "Point", "coordinates": [ 4.748681666560899, 52.088073644044584 ] } },
{ "type": "Feature", "properties": { "Locatienummer": 102401, "Organisatie": "Stichting Reinier Haga Groep", "Name": "HagaZiekenhuis Leyweg", "Type": "Algemeen ziekenhuis", "Plaats": "'s-Gravenhage", "Straat": "Els Borst-Eilersplein", "Nummer": "275", "Postcode": "2545 AA" }, "geometry": { "type": "Point", "coordinates": [ 4.263840005845045, 52.056628967442691 ] } },
{ "type": "Feature", "properties": { "Locatienummer": 102402, "Organisatie": "Stichting Reinier Haga Groep", "Name": "HagaZiekenhuis Sportlaan", "Type": "Algemeen ziekenhuis", "Plaats": "'s-Gravenhage", "Straat": "Sportlaan", "Nummer": "600", "Postcode": "2566 MJ" }, "geometry": { "type": "Point", "coordinates": [ 4.264223995274393, 52.08142374776348 ] } },
{ "type": "Feature", "properties": { "Locatienummer": 102403, "Organisatie": "Stichting Reinier Haga Groep", "Name": "HagaZiekenhuis Juliana Kinderziekenhuis", "Type": "Kinderziekenhuis", "Plaats": "'s-Gravenhage", "Straat": "Els Borst-Eilersplein", "Nummer": "275", "Postcode": "2566 AA" }, "geometry": { "type": "Point", "coordinates": [ 4.24432413324103, 52.067128947720413 ] } },
{ "type": "Feature", "properties": { "Locatienummer": 102404, "Organisatie": "Stichting Reinier Haga Groep", "Name": "HagaZiekenhuis Zorgplein Westland", "Type": "Buitenpolikliniek", "Plaats": "’s-Gravenzande", "Straat": "Zandeveltplein", "Nummer": "3", "Postcode": "2692 AH" }, "geometry": { "type": "Point", "coordinates": [ 4.158316407595178, 52.002288417239697 ] } },
{ "type": "Feature", "properties": { "Locatienummer": 102405, "Organisatie": "Stichting Reinier Haga Groep", "Name": "Reinier de Graaf Diaconessenhuis Voorburg", "Type": "Algemeen ziekenhuis", "Plaats": "Voorburg", "Straat": "Fonteynenburghlaan", "Nummer": "5", "Postcode": "2275 CX" }, "geometry": { "type": "Point", "coordinates": [ 4.351386697527054, 52.06107181827479 ] } },
{ "type": "Feature", "properties": { "Locatienummer": 102406, "Organisatie": "Stichting Reinier Haga Groep", "Name": "Reinier de Graaf  Ypenburg", "Type": "Buitenpolikliniek", "Plaats": "'s-Gravenhage", "Straat": "Kiekendiefstraat", "Nummer": "17", "Postcode": "2496 RP" }, "geometry": { "type": "Point", "coordinates": [ 4.385431401035868, 52.051577605259432 ] } },
{ "type": "Feature", "properties": { "Locatienummer": 102407, "Organisatie": "Stichting Reinier Haga Groep", "Name": "Reinier de Graaf Naaldwijk", "Type": "Buitenpolikliniek", "Plaats": "Naaldwijk", "Straat": "Middelbroekweg", "Nummer": "2a", "Postcode": "2671 ME" }, "geometry": { "type": "Point", "coordinates": [ 4.216468064215285, 51.990125956068056 ] } },
{ "type": "Feature", "properties": { "Locatienummer": 102408, "Organisatie": "Stichting Reinier Haga Groep", "Name": "Reinier de Graaf Gasthuis", "Type": "Algemeen ziekenhuis", "Plaats": "Delft", "Straat": "Reinier de Graafweg", "Nummer": "5", "Postcode": "2625 AD" }, "geometry": { "type": "Point", "coordinates": [ 4.339285722414258, 51.998034478513688 ] } },
{ "type": "Feature", "properties": { "Locatienummer": 102410, "Organisatie": "Stichting Reinier Haga Groep", "Name": "LangeLand Ziekenhuis", "Type": "Algemeen ziekenhuis", "Plaats": "Zoetermeer", "Straat": "Toneellaan", "Nummer": "1", "Postcode": "2725 NA" }, "geometry": { "type": "Point", "coordinates": [ 4.499654224696056, 52.068915772588227 ] } },
{ "type": "Feature", "properties": { "Locatienummer": 102412, "Organisatie": "Stichting Reinier Haga Groep", "Name": "Langeland Ziekenhuis Huidkliniek en Plastische chirurgie", "Type": "Buitenpolikliniek", "Plaats": "Zoetermeer", "Straat": "Europaweg", "Nummer": "151", "Postcode": "2711 ER" }, "geometry": { "type": "Point", "coordinates": [ 4.494256700297892, 52.063850398163474 ] } },
{ "type": "Feature", "properties": { "Locatienummer": 102501, "Organisatie": "Havenpolikliniek", "Name": "Havenziekenhuis", "Type": "Havenziekenhuis", "Plaats": "Rotterdam", "Straat": "Haringvliet", "Nummer": "2", "Postcode": "3011 TD" }, "geometry": { "type": "Point", "coordinates": [ 4.498298551624661, 51.920494406654939 ] } },
{ "type": "Feature", "properties": { "Locatienummer": 102503, "Organisatie": "Havenpolikliniek", "Name": "Havenziekenhuis Locatie Buitenhaven", "Type": "Buitenpolikliniek", "Plaats": "Rotterdam", "Straat": "Haringvliet", "Nummer": "72", "Postcode": "3011 TG" }, "geometry": { "type": "Point", "coordinates": [ 4.495538992939218, 51.919637554233717 ] } },
{ "type": "Feature", "properties": { "Locatienummer": 102601, "Organisatie": "IJsselland Ziekenhuis", "Name": "IJsselland Ziekenhuis", "Type": "Algemeen ziekenhuis", "Plaats": "Capelle a\/d IJssel", "Straat": "Prins Constantijnweg", "Nummer": "2", "Postcode": "2906 ZC" }, "geometry": { "type": "Point", "coordinates": [ 4.56272630926365, 51.93870755027433 ] } },
{ "type": "Feature", "properties": { "Locatienummer": 102602, "Organisatie": "IJsselland Ziekenhuis", "Name": "IJsselland Ziekenhuis Buitenpolikliniek Nesselande", "Type": "Buitenpolikliniek", "Plaats": "Rotterdam", "Straat": "Cypruslaan", "Nummer": "410", "Postcode": "3059 XA" }, "geometry": { "type": "Point", "coordinates": [ 4.583975256078356, 51.984130109403253 ] } },
{ "type": "Feature", "properties": { "Locatienummer": 102603, "Organisatie": "IJsselland Ziekenhuis", "Name": "IJsselland Ziekenhuis Buitenpolikliniek Krimpen", "Type": "Buitenpolikliniek", "Plaats": "Krimpen a\/d Ijssel", "Straat": "Groenendaal", "Nummer": "1", "Postcode": "2922 CJ" }, "geometry": { "type": "Point", "coordinates": [ 4.601219211666983, 51.920517563812304 ] } },
{ "type": "Feature", "properties": { "Locatienummer": 102801, "Organisatie": "Ikazia Ziekenhuis", "Name": "Ikazia Ziekenhuis", "Type": "Algemeen ziekenhuis", "Plaats": "Rotterdam", "Straat": "Montessoriweg", "Nummer": "1", "Postcode": "3083 AN" }, "geometry": { "type": "Point", "coordinates": [ 4.493409987275515, 51.886345060203347 ] } },
{ "type": "Feature", "properties": { "Locatienummer": 102802, "Organisatie": "Ikazia Ziekenhuis", "Name": "Ikazia Ziekenhuis Buitenpolikliniek Carnisselande", "Type": "Buitenpolikliniek", "Plaats": "Barendrecht", "Straat": "Middeldijkerplein", "Nummer": "36", "Postcode": "2993 DL" }, "geometry": { "type": "Point", "coordinates": [ 4.500526637321437, 51.848807929522216 ] } },
{ "type": "Feature", "properties": { "Locatienummer": 102804, "Organisatie": "Ikazia Ziekenhuis", "Name": "Ikazia Ziekenhuis Polikliniek Slikkerveer", "Type": "Buitenpolikliniek", "Plaats": "Ridderkerk", "Straat": "Prinses Margrietstraat", "Nummer": "42", "Postcode": "2983 EH" }, "geometry": { "type": "Point", "coordinates": [ 4.604596473165598, 51.878500246232448 ] } },
{ "type": "Feature", "properties": { "Locatienummer": 102902, "Organisatie": "Isala klinieken", "Name": "Isala Zwolle", "Type": "Algemeen ziekenhuis", "Plaats": "Zwolle", "Straat": "Dokter van Heesweg", "Nummer": "2", "Postcode": "8025 AB" }, "geometry": { "type": "Point", "coordinates": [ 6.123762660214176, 52.513405300154233 ] } },
{ "type": "Feature", "properties": { "Locatienummer": 102903, "Organisatie": "Isala klinieken", "Name": "Isala Polikliniek Kampen", "Type": "Buitenpolikliniek", "Plaats": "Kampen", "Straat": "Engelenbergplantsoen", "Nummer": "7", "Postcode": "8266 AB" }, "geometry": { "type": "Point", "coordinates": [ 5.919339356842072, 52.551616712923483 ] } },
{ "type": "Feature", "properties": { "Locatienummer": 102904, "Organisatie": "Isala klinieken", "Name": "Isala Polikliniek Heerde", "Type": "Buitenpolikliniek", "Plaats": "Wapenveld", "Straat": "Groteweg", "Nummer": "5", "Postcode": "8191 JS" }, "geometry": { "type": "Point", "coordinates": [ 6.053606542909891, 52.412529322902792 ] } },
{ "type": "Feature", "properties": { "Locatienummer": 102905, "Organisatie": "Isala klinieken", "Name": "Isala Diaconessenhuis Meppel", "Type": "Algemeen ziekenhuis", "Plaats": "Meppel", "Straat": "Hoogeveenseweg", "Nummer": "38", "Postcode": "7943 KA" }, "geometry": { "type": "Point", "coordinates": [ 6.217422650042184, 52.690937364719126 ] } },
{ "type": "Feature", "properties": { "Locatienummer": 102907, "Organisatie": "Isala klinieken", "Name": "Isala Diaconessenhuis Steenwijk", "Type": "Buitenpolikliniek", "Plaats": "Steenwijk", "Straat": "Sluisweg", "Nummer": "2", "Postcode": "8332 JC" }, "geometry": { "type": "Point", "coordinates": [ 6.120789359468074, 52.793423625794041 ] } },
{ "type": "Feature", "properties": { "Locatienummer": 103004, "Organisatie": "Jeroen Bosch Ziekenhuis", "Name": "Jeroen Bosch Ziekenhuis Boxtel", "Type": "Buitenpolikliniek", "Plaats": "Boxtel", "Straat": "Liduinahof", "Nummer": "35", "Postcode": "5281 AD" }, "geometry": { "type": "Point", "coordinates": [ 5.321567254103011, 51.593988318943559 ] } },
{ "type": "Feature", "properties": { "Locatienummer": 103005, "Organisatie": "Jeroen Bosch Ziekenhuis", "Name": "Jeroen Bosch Ziekenhuis Zaltbommel", "Type": "Buitenpolikliniek", "Plaats": "Zaltbommel", "Straat": "Kerkstraat", "Nummer": "2", "Postcode": "5301 EH" }, "geometry": { "type": "Point", "coordinates": [ 5.25014600799875, 51.81377596563275 ] } },
{ "type": "Feature", "properties": { "Locatienummer": 103006, "Organisatie": "Jeroen Bosch Ziekenhuis", "Name": "Jeroen Bosch Ziekenhuis Rosmalen", "Type": "Buitenpolikliniek", "Plaats": "Rosmalen", "Straat": "De Hoef", "Nummer": "90", "Postcode": "5242 CN" }, "geometry": { "type": "Point", "coordinates": [ 5.370330366304796, 51.713642710203864 ] } },
{ "type": "Feature", "properties": { "Locatienummer": 103007, "Organisatie": "Jeroen Bosch Ziekenhuis", "Name": "Jeroen Bosch Ziekenhuis 's-Hertogenbosch", "Type": "Algemeen ziekenhuis", "Plaats": "'s-Hertogenbosch", "Straat": "Henri Dunantstraat", "Nummer": "1", "Postcode": "5223 GZ" }, "geometry": { "type": "Point", "coordinates": [ 5.277230561888746, 51.684721403208179 ] } },
{ "type": "Feature", "properties": { "Locatienummer": 103009, "Organisatie": "Jeroen Bosch Ziekenhuis", "Name": "Sport Medisch Centrum Jeroen Bosch Ziekenhuis", "Type": "Buitenpolikliniek", "Plaats": "'s-Hertogenbosch", "Straat": "Marathonloop", "Nummer": "9", "Postcode": "5235 AA" }, "geometry": { "type": "Point", "coordinates": [ 5.316185994468877, 51.722215453593513 ] } },
{ "type": "Feature", "properties": { "Locatienummer": 103010, "Organisatie": "Jeroen Bosch Ziekenhuis", "Name": "Jeoren Bosch Ziekenhuis Drunen", "Type": "Buitenpolikliniek", "Plaats": "Drunen", "Straat": "Tinie de Munnikstraat", "Nummer": "17", "Postcode": "5151 VW" }, "geometry": { "type": "Point", "coordinates": [ 5.143846277217494, 51.690353910456309 ] } },
{ "type": "Feature", "properties": { "Locatienummer": 103011, "Organisatie": "Jeroen Bosch Ziekenhuis", "Name": "Jeroen Bosch Ziekenhuis Gamerschestraat", "Type": "Buitenpolikliniek", "Plaats": "Zaltbommel", "Straat": "Gamerschestraat", "Nummer": "32a", "Postcode": "5301 AS" }, "geometry": { "type": "Point", "coordinates": [ 5.245608909785582, 51.813150385964725 ] } },
{ "type": "Feature", "properties": { "Locatienummer": 103101, "Organisatie": "Spaarne Gasthuis", "Name": "Spaarne Gasthuis locatie Haarlem-Zuid", "Type": "Algemeen ziekenhuis", "Plaats": "Haarlem", "Straat": "Boerhaavelaan", "Nummer": "22", "Postcode": "2035 RC" }, "geometry": { "type": "Point", "coordinates": [ 4.651856900309668, 52.366348134688224 ] } },
{ "type": "Feature", "properties": { "Locatienummer": 103102, "Organisatie": "Spaarne Gasthuis", "Name": "Spaarne Gasthuis locatie Haarlem-Noord", "Type": "Algemeen ziekenhuis", "Plaats": "Haarlem", "Straat": "Vondelweg", "Nummer": "999", "Postcode": "2026 BW" }, "geometry": { "type": "Point", "coordinates": [ 4.650010049679454, 52.422690454635017 ] } },
{ "type": "Feature", "properties": { "Locatienummer": 103103, "Organisatie": "Spaarne Gasthuis", "Name": "Spaarne Gasthuis Hoofddorp", "Type": "Algemeen ziekenhuis", "Plaats": "Hoofddorp", "Straat": "Spaarnepoort", "Nummer": "1", "Postcode": "2134 TM" }, "geometry": { "type": "Point", "coordinates": [ 4.653312046657386, 52.324536307959946 ] } },
{ "type": "Feature", "properties": { "Locatienummer": 103104, "Organisatie": "Spaarne Gasthuis", "Name": "Spaarne Gasthuis  Heemstede", "Type": "Buitenpolikliniek", "Plaats": "Heemstede", "Straat": "Händellaan", "Nummer": "2", "Postcode": "2102 CW" }, "geometry": { "type": "Point", "coordinates": [ 4.633534914951722, 52.354997997672712 ] } },
{ "type": "Feature", "properties": { "Locatienummer": 103105, "Organisatie": "Spaarne Gasthuis", "Name": "Spaarne ziekenhuis Nieuw Vennep", "Type": "Buitenpolikliniek", "Plaats": "Nieuw Vennep", "Straat": "Lucas Bolsstraat", "Nummer": "10", "Postcode": "2152 CZ" }, "geometry": { "type": "Point", "coordinates": [ 4.629958257420834, 52.272105710644581 ] } },
{ "type": "Feature", "properties": { "Locatienummer": 103106, "Organisatie": "Spaarne Gasthuis", "Name": "Spaarne Ziekenhuis Polikliniek Hillegom", "Type": "Buitenpolikliniek", "Plaats": "Hillegom", "Straat": "Abellalaan", "Nummer": "1", "Postcode": "2182 TX" }, "geometry": { "type": "Point", "coordinates": [ 4.578086918676028, 52.285253179126357 ] } },
{ "type": "Feature", "properties": { "Locatienummer": 103107, "Organisatie": "Spaarne Gasthuis", "Name": "Spaarne Gasthuis  Velsen-Noord", "Type": "Buitenpolikliniek", "Plaats": "Velsen-Noord", "Straat": "Wijkstraatweg", "Nummer": "160", "Postcode": "1951 EK" }, "geometry": { "type": "Point", "coordinates": [ 4.645783180131038, 52.471431628145893 ] } },
{ "type": "Feature", "properties": { "Locatienummer": 103201, "Organisatie": "Laurentius Ziekenhuis", "Name": "Laurentius Ziekenhuis", "Type": "Algemeen ziekenhuis", "Plaats": "Roermond", "Straat": "Mgr. Driessenstraat", "Nummer": "6", "Postcode": "6043 CV" }, "geometry": { "type": "Point", "coordinates": [ 5.998850350461106, 51.19182427301272 ] } },
{ "type": "Feature", "properties": { "Locatienummer": 103202, "Organisatie": "Laurentius Ziekenhuis", "Name": "Laurentius Buitenpolikliniek Echt", "Type": "Buitenpolikliniek", "Plaats": "Echt", "Straat": "Nobelweg", "Nummer": "10", "Postcode": "6101 XB" }, "geometry": { "type": "Point", "coordinates": [ 5.87499259815806, 51.116067393973019 ] } },
{ "type": "Feature", "properties": { "Locatienummer": 103301, "Organisatie": "Leids Universitair Medisch Centrum", "Name": "Leids Universitair Medisch Centrum", "Type": "Academisch ziekenhuis", "Plaats": "Leiden", "Straat": "Albinusdreef", "Nummer": "2", "Postcode": "2333 ZA" }, "geometry": { "type": "Point", "coordinates": [ 4.478994221412532, 52.166256297549246 ] } },
{ "type": "Feature", "properties": { "Locatienummer": 103302, "Organisatie": "Leids Universitair Medisch Centrum", "Name": "Willem-Alexander Kinderziekenhuis", "Type": "Kinderziekenhuis", "Plaats": "Leiden", "Straat": "Albinusdreef", "Nummer": "2", "Postcode": "2333 ZA" }, "geometry": { "type": "Point", "coordinates": [ 4.478994221412532, 52.166256297549246 ] } },
{ "type": "Feature", "properties": { "Locatienummer": 103401, "Organisatie": "Martini Ziekenhuis", "Name": "Martini Ziekenhuis van Swieten", "Type": "Algemeen ziekenhuis", "Plaats": "Groningen", "Straat": "Van Swietenlaan", "Nummer": "1", "Postcode": "9728 NT" }, "geometry": { "type": "Point", "coordinates": [ 6.551758200360227, 53.191664418760801 ] } },
{ "type": "Feature", "properties": { "Locatienummer": 103501, "Organisatie": "Máxima Medisch Centrum", "Name": "Máxima Medisch Centrum Veldhoven", "Type": "Algemeen ziekenhuis", "Plaats": "Veldhoven", "Straat": "De Run", "Nummer": "4600", "Postcode": "5504 DB" }, "geometry": { "type": "Point", "coordinates": [ 5.418761518665615, 51.405825195875167 ] } },
{ "type": "Feature", "properties": { "Locatienummer": 103502, "Organisatie": "Máxima Medisch Centrum", "Name": "Máxima Medisch Centrum Eindhoven", "Type": "Algemeen ziekenhuis", "Plaats": "Eindhoven", "Straat": "Ds. Th. Fliednerstraat", "Nummer": "1", "Postcode": "5631 BM" }, "geometry": { "type": "Point", "coordinates": [ 5.487869047822987, 51.454711339038873 ] } },
{ "type": "Feature", "properties": { "Locatienummer": 103602, "Organisatie": "Meander Medisch Centrum", "Name": "Meander Medisch Centrum Baarn", "Type": "Algemeen ziekenhuis", "Plaats": "Baarn", "Straat": "Molenweg", "Nummer": "2", "Postcode": "3743 CM" }, "geometry": { "type": "Point", "coordinates": [ 5.276994509527246, 52.21480953926153 ] } },
{ "type": "Feature", "properties": { "Locatienummer": 103604, "Organisatie": "Meander Medisch Centrum", "Name": "Meander Medisch Centrum Amersfoort", "Type": "Algemeen ziekenhuis", "Plaats": "Amersfoort", "Straat": "Maatweg", "Nummer": "3", "Postcode": "3813 TZ" }, "geometry": { "type": "Point", "coordinates": [ 5.370466269080387, 52.171079748998416 ] } },
{ "type": "Feature", "properties": { "Locatienummer": 103606, "Organisatie": "Meander Medisch Centrum", "Name": "Meander Medisch Centrum de Mulderij ", "Type": "Buitenpolikliniek", "Plaats": "Leusden", "Straat": "De Mulderij", "Nummer": "2", "Postcode": "3831 NV" }, "geometry": { "type": "Point", "coordinates": [ 5.429046370130388, 52.131526523710598 ] } },
{ "type": "Feature", "properties": { "Locatienummer": 103607, "Organisatie": "Meander Medisch Centrum", "Name": "Meander Medisch Centrum Nijkerk", "Type": "Buitenpolikliniek", "Plaats": "Nijkerk", "Straat": "Oranjelaan", "Nummer": "83-85", "Postcode": "3862 CX" }, "geometry": { "type": "Point", "coordinates": [ 5.492223710652325, 52.223136702941538 ] } },
{ "type": "Feature", "properties": { "Locatienummer": 103608, "Organisatie": "Meander Medisch Centrum", "Name": "Meander Medisch Centrum Barneveld", "Type": "Buitenpolikliniek", "Plaats": "Barneveld", "Straat": "Nederwoudse weg", "Nummer": null, "Postcode": "3772 TD" }, "geometry": { "type": "Point", "coordinates": [ 5.581149282400055, 52.126628578167704 ] } },
{ "type": "Feature", "properties": { "Locatienummer": 103609, "Organisatie": "Meander Medisch Centrum", "Name": "Meander Medisch Centrum Bunschoten", "Type": "Buitenpolikliniek", "Plaats": "Bunschoten-Spakenburg", "Straat": "Chopinstraat", "Nummer": "2D", "Postcode": "3752 HR" }, "geometry": { "type": "Point", "coordinates": [ 5.373469931746035, 52.244106375327291 ] } },
{ "type": "Feature", "properties": { "Locatienummer": 103701, "Organisatie": "Noodwest Ziekenhuisgroep", "Name": "Noordwest Ziekenhuisgroep  Alkmaar", "Type": "Algemeen ziekenhuis", "Plaats": "Alkmaar", "Straat": "Wilhelminalaan", "Nummer": "12", "Postcode": "1815 JD" }, "geometry": { "type": "Point", "coordinates": [ 4.737155694801943, 52.628098070287834 ] } },
{ "type": "Feature", "properties": { "Locatienummer": 103702, "Organisatie": "Noodwest Ziekenhuisgroep", "Name": "Noordwest Ziekenhuisgroep  Den Helder", "Type": "Algemeen ziekenhuis", "Plaats": "Den Helder", "Straat": "Huisduinerweg", "Nummer": "3", "Postcode": "1782 GZ" }, "geometry": { "type": "Point", "coordinates": [ 4.744608356079209, 52.957958571899859 ] } },
{ "type": "Feature", "properties": { "Locatienummer": 103703, "Organisatie": "Noodwest Ziekenhuisgroep", "Name": "Noordwest Ziekenhuisgroep  Schagen", "Type": "Buitenpolikliniek", "Plaats": "Schagen", "Straat": "Kaagweg", "Nummer": "25", "Postcode": "1741 LC" }, "geometry": { "type": "Point", "coordinates": [ 4.808164176509084, 52.783294562607715 ] } },
{ "type": "Feature", "properties": { "Locatienummer": 103704, "Organisatie": "Noodwest Ziekenhuisgroep", "Name": "Noordwest Ziekenhuisgroep  Polikliniek Texel", "Type": "Buitenpolikliniek", "Plaats": "Den Burg", "Straat": "Pontweg", "Nummer": "106", "Postcode": "1791 LB" }, "geometry": { "type": "Point", "coordinates": [ 4.787221058555916, 53.055780844752583 ] } },
{ "type": "Feature", "properties": { "Locatienummer": 103705, "Organisatie": "Noodwest Ziekenhuisgroep", "Name": "Noordwest Ziekenhuisgroep  Heerhugowaard", "Type": "Buitenpolikliniek", "Plaats": "Heerhugowaard", "Straat": "Stationsplein", "Nummer": "49", "Postcode": "1703 WD" }, "geometry": { "type": "Point", "coordinates": [ 4.822928747591643, 52.669158263189779 ] } },
{ "type": "Feature", "properties": { "Locatienummer": 103706, "Organisatie": "Noodwest Ziekenhuisgroep", "Name": "Noordwest Ziekenhuisgroep  Limmen", "Type": "Buitenpolikliniek", "Plaats": "Limmen", "Straat": "Zonnedauw", "Nummer": "1906", "Postcode": "1906 HA" }, "geometry": { "type": "Point", "coordinates": [ 4.699126152483127, 52.573114842294935 ] } },
{ "type": "Feature", "properties": { "Locatienummer": 103801, "Organisatie": "Haaglanden Medisch Centrum", "Name": "HMC Antoniushove", "Type": "Algemeen ziekenhuis", "Plaats": "Leidschendam", "Straat": "Burgemeester Banninglaan", "Nummer": "1", "Postcode": "2262 BA" }, "geometry": { "type": "Point", "coordinates": [ 4.38336728343762, 52.092907811323286 ] } },
{ "type": "Feature", "properties": { "Locatienummer": 103802, "Organisatie": "Haaglanden Medisch Centrum", "Name": "HMC Westeinde", "Type": "Algemeen ziekenhuis", "Plaats": "'s-Gravenhage", "Straat": "Lijnbaan", "Nummer": "32", "Postcode": "2512 VA" }, "geometry": { "type": "Point", "coordinates": [ 4.300064984760811, 52.073858771833144 ] } },
{ "type": "Feature", "properties": { "Locatienummer": 103805, "Organisatie": "Haaglanden Medisch Centrum", "Name": "HMC Bronovo", "Type": "Algemeen ziekenhuis", "Plaats": "'s-Gravenhage", "Straat": "Bronovolaan", "Nummer": "5", "Postcode": "2597 AX" }, "geometry": { "type": "Point", "coordinates": [ 4.317999210181435, 52.101654175341871 ] } },
{ "type": "Feature", "properties": { "Locatienummer": 103808, "Organisatie": "Haaglanden Medisch Centrum", "Name": "HMC  Gezondheidscentrum Wassenaar", "Type": "Buitenpolikliniek", "Plaats": "Wassenaar", "Straat": "Hofcampweg", "Nummer": "65", "Postcode": "2241 KE" }, "geometry": { "type": "Point", "coordinates": [ 4.399487369561654, 52.146651786947849 ] } },
{ "type": "Feature", "properties": { "Locatienummer": 103811, "Organisatie": "Haaglanden Medisch Centrum", "Name": "HMC Buitenpolikliniek Savallelaan", "Type": "Buitenpolikliniek", "Plaats": "Voorburg", "Straat": "Savallelaan", "Nummer": "2", "Postcode": "2273 JX" }, "geometry": { "type": "Point", "coordinates": [ 4.354659883563166, 52.079113881325974 ] } },
{ "type": "Feature", "properties": { "Locatienummer": 103812, "Organisatie": "Haaglanden Medisch Centrum", "Name": "HMC Sport Medisch Centrum", "Type": "Buitenpolikliniek", "Plaats": "'s-Gravenhage", "Straat": "Mr. P. Droogleever Fortuynweg", "Nummer": "22", "Postcode": "2533 SR" }, "geometry": { "type": "Point", "coordinates": [ 4.288619853104438, 52.056395280370793 ] } },
{ "type": "Feature", "properties": { "Locatienummer": 103903, "Organisatie": "Maasstad ziekenhuis", "Name": "Maasstad Ziekenhuis", "Type": "Algemeen ziekenhuis", "Plaats": "Rotterdam", "Straat": "Maasstadweg", "Nummer": "21", "Postcode": "3079 DZ" }, "geometry": { "type": "Point", "coordinates": [ 4.535074679123911, 51.879976038115544 ] } },
{ "type": "Feature", "properties": { "Locatienummer": 104001, "Organisatie": "Medisch Spectrum Twente", "Name": "Medisch Spectrum Twente Ariënsplein", "Type": "Buitenpolikliniek", "Plaats": "Enschede", "Straat": "Haaksbergerstraat", "Nummer": "55", "Postcode": "7513 ER" }, "geometry": { "type": "Point", "coordinates": [ 6.891362252417412, 52.216162116917026 ] } },
{ "type": "Feature", "properties": { "Locatienummer": 104002, "Organisatie": "Medisch Spectrum Twente", "Name": "Medisch Spectrum Twente Koningsplein", "Type": "Algemeen ziekenhuis", "Plaats": "Enschede", "Straat": "Koningsplein", "Nummer": "1", "Postcode": "7512 KZ" }, "geometry": { "type": "Point", "coordinates": [ 6.891362252417412, 52.216162116917026 ] } },
{ "type": "Feature", "properties": { "Locatienummer": 104003, "Organisatie": "Medisch Spectrum Twente", "Name": "Medisch Spectrum Twente Oldenzaal", "Type": "Buitenpolikliniek", "Plaats": "Oldenzaal", "Straat": "Pr. Bernhardstraat", "Nummer": "17", "Postcode": "7573 AM" }, "geometry": { "type": "Point", "coordinates": [ 6.931226615299175, 52.308128098354963 ] } },
{ "type": "Feature", "properties": { "Locatienummer": 104004, "Organisatie": "Medisch Spectrum Twente", "Name": "Medisch Spectrum Twente Buitenpolikliniek Haaksbergen", "Type": "Buitenpolikliniek", "Plaats": "Haaksbergen", "Straat": "Wiedenbroeksingel", "Nummer": "4", "Postcode": "7481 BT" }, "geometry": { "type": "Point", "coordinates": [ 6.752616139081669, 52.159968435957708 ] } },
{ "type": "Feature", "properties": { "Locatienummer": 104602, "Organisatie": "Pantein", "Name": "Maasziekenhuis Pantein", "Type": "Algemeen ziekenhuis", "Plaats": "Beugen", "Straat": "Dokter Kopstraat", "Nummer": "11", "Postcode": "5835 DV" }, "geometry": { "type": "Point", "coordinates": [ 5.940371719672621, 51.66330387692814 ] } },
{ "type": "Feature", "properties": { "Locatienummer": 105001, "Organisatie": "Rivas Zorggroep", "Name": "Rivas Zorggroep Beatrixziekenhuis", "Type": "Algemeen ziekenhuis", "Plaats": "Gorinchem", "Straat": "Banneweg", "Nummer": "57", "Postcode": "4204 AA" }, "geometry": { "type": "Point", "coordinates": [ 4.957682200837255, 51.838642422125382 ] } },
{ "type": "Feature", "properties": { "Locatienummer": 105002, "Organisatie": "Rivas Zorggroep", "Name": "Rivas Zorggroep Lingepolikliniek", "Type": "Buitenpolikliniek", "Plaats": "Leerdam", "Straat": "Lingesteynplantsoen", "Nummer": "3", "Postcode": "4141 GH" }, "geometry": { "type": "Point", "coordinates": [ 5.106821161681442, 51.891279637901711 ] } },
{ "type": "Feature", "properties": { "Locatienummer": 105101, "Organisatie": "Rode Kruis Ziekenhuis", "Name": "Rode Kruis Ziekenhuis Beverwijk", "Type": "Algemeen ziekenhuis", "Plaats": "Beverwijk", "Straat": "Vondellaan", "Nummer": "13", "Postcode": "1942 LE" }, "geometry": { "type": "Point", "coordinates": [ 4.650892039717492, 52.47927376765395 ] } },
{ "type": "Feature", "properties": { "Locatienummer": 105201, "Organisatie": "Spijkenisse Medisch Centrum", "Name": "Spijkenisse Medisch Centrum", "Type": "Algemeen ziekenhuis", "Plaats": "Spijkenisse", "Straat": "Ruwaard van Puttenweg", "Nummer": "500", "Postcode": "3201 GZ" }, "geometry": { "type": "Point", "coordinates": [ 4.33665355528318, 51.846772797026667 ] } },
{ "type": "Feature", "properties": { "Locatienummer": 105202, "Organisatie": "Spijkenisse Medisch Centrum", "Name": "Spijkenisse Medisch Centrum Buitenpoli Hoogvliet", "Type": "Buitenpolikliniek", "Plaats": "Hoogvliet", "Straat": "Oude Wal", "Nummer": "24L", "Postcode": "3193 EN" }, "geometry": { "type": "Point", "coordinates": [ 4.353404535175767, 51.870688285644285 ] } },
{ "type": "Feature", "properties": { "Locatienummer": 105203, "Organisatie": "Spijkenisse Medisch Centrum", "Name": "Spijkenisse Medisch Centrum Buitenpoli Rozenburg", "Type": "Buitenpolikliniek", "Plaats": "Rozenburg", "Straat": "Blankenburg", "Nummer": "6", "Postcode": "3181 BC" }, "geometry": { "type": "Point", "coordinates": [ 4.255866438535512, 51.901259846564678 ] } },
{ "type": "Feature", "properties": { "Locatienummer": 105301, "Organisatie": "Saxenburgh Groep", "Name": "Saxenburgh Groep Ziekenhuis Röpcke Zweers", "Type": "Algemeen ziekenhuis", "Plaats": "Hardenberg", "Straat": "Jan Weitkamplaan", "Nummer": "4a", "Postcode": "7772 SE" }, "geometry": { "type": "Point", "coordinates": [ 6.632221278624655, 52.571886196817864 ] } },
{ "type": "Feature", "properties": { "Locatienummer": 105303, "Organisatie": "Saxenburgh Groep", "Name": "Saxenburgh Groep Polikliniek Ommen", "Type": "Buitenpolikliniek", "Plaats": "Ommen", "Straat": "Hessel Mulertstraat", "Nummer": "22", "Postcode": "7731 CL" }, "geometry": { "type": "Point", "coordinates": [ 6.429587530241302, 52.518742553935063 ] } },
{ "type": "Feature", "properties": { "Locatienummer": 105305, "Organisatie": "Saxenburgh Groep", "Name": "Saxenburgh Groep Polikliniek Westhaar", "Type": "Buitenpolikliniek", "Plaats": "Westerhaar", "Straat": "Beeklaan", "Nummer": "1", "Postcode": "7676 BC" }, "geometry": { "type": "Point", "coordinates": [ 6.62049862695319, 52.456051706425619 ] } },
{ "type": "Feature", "properties": { "Locatienummer": 105401, "Organisatie": "Santiz", "Name": "Slingeland Ziekenhuis", "Type": "Algemeen ziekenhuis", "Plaats": "Doetinchem", "Straat": "Kruisbergseweg", "Nummer": "25", "Postcode": "7009 BL" }, "geometry": { "type": "Point", "coordinates": [ 6.285585703773213, 51.97649129790495 ] } },
{ "type": "Feature", "properties": { "Locatienummer": 105402, "Organisatie": "Santiz", "Name": "Slingeland Ziekenhuis Locatie Gezellenlaan", "Type": "Buitenpolikliniek", "Plaats": "Doetiechem", "Straat": "Gezellenlaan", "Nummer": "10", "Postcode": "7005 AZ" }, "geometry": { "type": "Point", "coordinates": [ 6.301206111414847, 51.954483475872742 ] } },
{ "type": "Feature", "properties": { "Locatienummer": 105404, "Organisatie": "Santiz", "Name": "Streekziekenhuis Koningin Beatrix", "Type": "Algemeen ziekenhuis", "Plaats": "Winterswijk", "Straat": "Beatrixpark", "Nummer": "1", "Postcode": "7101 BN" }, "geometry": { "type": "Point", "coordinates": [ 6.701671326251619, 51.978518389666043 ] } },
{ "type": "Feature", "properties": { "Locatienummer": 105407, "Organisatie": "Santiz", "Name": "Streekziekenhuis Koningin Beatrix Buitenpoli Eibergen", "Type": "Buitenpolikliniek", "Plaats": "Eibergen", "Straat": "J W Hagemanstraat", "Nummer": "46-2", "Postcode": "7151 AH" }, "geometry": { "type": "Point", "coordinates": [ 6.650616152016411, 52.100744634020124 ] } },
{ "type": "Feature", "properties": { "Locatienummer": 105701, "Organisatie": "St. Anna Zorggroep", "Name": "St. Anna Ziekenhuis Geldrop", "Type": "Algemeen ziekenhuis", "Plaats": "Geldrop", "Straat": "Bogardeind", "Nummer": "2", "Postcode": "5664 EH" }, "geometry": { "type": "Point", "coordinates": [ 5.558552205768298, 51.419851591680334 ] } },
{ "type": "Feature", "properties": { "Locatienummer": 105702, "Organisatie": "St. Anna Zorggroep", "Name": "St. Anna Ziekenhuis Eindhoven", "Type": "Buitenpolikliniek", "Plaats": "Eindhoven", "Straat": "Antoon Coolenlaan", "Nummer": "1-03", "Postcode": "5644 RX" }, "geometry": { "type": "Point", "coordinates": [ 5.476801717044055, 51.416437575871953 ] } },
{ "type": "Feature", "properties": { "Locatienummer": 105801, "Organisatie": "St. Antonius Ziekenhuis", "Name": "St. Antonius Ziekenhuis Nieuwegein", "Type": "Algemeen ziekenhuis", "Plaats": "Nieuwegein", "Straat": "Koekoekslaan", "Nummer": "1", "Postcode": "3435 CM" }, "geometry": { "type": "Point", "coordinates": [ 5.080578856834939, 52.024393124157214 ] } },
{ "type": "Feature", "properties": { "Locatienummer": 105804, "Organisatie": "St. Antonius Ziekenhuis", "Name": "St. Antonius Ziekenhuis Polikliniek Houten", "Type": "Buitenpolikliniek", "Plaats": "Houten", "Straat": "Hofspoor", "Nummer": "2", "Postcode": "3994 VT" }, "geometry": { "type": "Point", "coordinates": [ 5.177742667854898, 52.02510032417252 ] } },
{ "type": "Feature", "properties": { "Locatienummer": 105806, "Organisatie": "St. Antonius Ziekenhuis", "Name": "St. Antonius Ziekenhuis Utrecht", "Type": "Algemeen ziekenhuis", "Plaats": "Utrecht", "Straat": "Soestwetering", "Nummer": "1", "Postcode": "3543 AZ" }, "geometry": { "type": "Point", "coordinates": [ 5.057207150397729, 52.10372207228864 ] } },
{ "type": "Feature", "properties": { "Locatienummer": 105807, "Organisatie": "St. Antonius Ziekenhuis", "Name": "St. Antonius Ziekenhuis Spatadercentrum", "Type": "Buitenpolikliniek", "Plaats": "Utrecht", "Straat": "Van Lawick van Pabstlaan", "Nummer": "12", "Postcode": "3453 RB" }, "geometry": { "type": "Point", "coordinates": [ 5.019080684915056, 52.08269390260169 ] } },
{ "type": "Feature", "properties": { "Locatienummer": 105808, "Organisatie": "St. Antonius Ziekenhuis", "Name": "St. Antonius Ziekenhuis Polikliniek Overvecht", "Type": "Buitenpolikliniek", "Plaats": "Utrecht", "Straat": "Neckardreef", "Nummer": "6", "Postcode": "3562 CN" }, "geometry": { "type": "Point", "coordinates": [ 5.122677067293329, 52.114780602316621 ] } },
{ "type": "Feature", "properties": { "Locatienummer": 105809, "Organisatie": "St. Antonius Ziekenhuis", "Name": "St. Antonius Ziekenhuis Woerden", "Type": "Algemeen ziekenhuis", "Plaats": "Woerden", "Straat": "Polanerbaan", "Nummer": "2", "Postcode": "3447 GN" }, "geometry": { "type": "Point", "coordinates": [ 4.891822056040429, 52.079890827096577 ] } },
{ "type": "Feature", "properties": { "Locatienummer": 105810, "Organisatie": "St. Antonius Ziekenhuis", "Name": "St. Antonius Ziekenhuis Polikliniek Mijdrecht", "Type": "Buitenpolikliniek", "Plaats": "Mijdrecht", "Straat": "Hoofdweg", "Nummer": "1", "Postcode": "3641 PN" }, "geometry": { "type": "Point", "coordinates": [ 4.863227608195754, 52.205771464527395 ] } },
{ "type": "Feature", "properties": { "Locatienummer": 105812, "Organisatie": "St. Antonius Ziekenhuis", "Name": "St. Antonius Ziekenhuis Dialysecentrum Tiel", "Type": "Buitenpolikliniek", "Plaats": "Tiel", "Straat": "President Kennedylaan", "Nummer": "1", "Postcode": "4201 WT" }, "geometry": { "type": "Point", "coordinates": [ 5.41558668431278, 51.889363309465708 ] } },
{ "type": "Feature", "properties": { "Locatienummer": 106101, "Organisatie": "St. Jans Gasthuis", "Name": "St. Jans Gasthuis", "Type": "Algemeen ziekenhuis", "Plaats": "Weert", "Straat": "Vogelsbleek", "Nummer": "5", "Postcode": "6001 BE" }, "geometry": { "type": "Point", "coordinates": [ 5.71282185310451, 51.254344726248448 ] } },
{ "type": "Feature", "properties": { "Locatienummer": 106102, "Organisatie": "St. Jans Gasthuis", "Name": "St. Jans Gasthuis Buitenpoli Budel", "Type": "Buitenpolikliniek", "Plaats": "Budel", "Straat": "Grensweg", "Nummer": "1", "Postcode": "6021 JW" }, "geometry": { "type": "Point", "coordinates": [ 5.571824285437367, 51.264371003116601 ] } },
{ "type": "Feature", "properties": { "Locatienummer": 106201, "Organisatie": "Ziekenhuis St. Jansdal", "Name": "Ziekenhuis St. Jansdal", "Type": "Algemeen ziekenhuis", "Plaats": "Harderwijk", "Straat": "Weth. Jansenlaan", "Nummer": "90", "Postcode": "3844 DG" }, "geometry": { "type": "Point", "coordinates": [ 5.6160904188631, 52.342004185019213 ] } },
{ "type": "Feature", "properties": { "Locatienummer": 106202, "Organisatie": "Ziekenhuis St. Jansdal", "Name": "Ziekenhuis St. Jansdal Polikliniek Dronten", "Type": "Buitenpolikliniek", "Plaats": "Dronten", "Straat": "Het Zwarte Water", "Nummer": "77-83", "Postcode": "8253 PD" }, "geometry": { "type": "Point", "coordinates": [ 5.703094219648079, 52.53775810820882 ] } },
{ "type": "Feature", "properties": { "Locatienummer": 106203, "Organisatie": "Ziekenhuis St. Jansdal", "Name": "Ziekenhuis St. Jansdal Polikliniek Nijkerk", "Type": "Buitenpolikliniek", "Plaats": "Nijkerk", "Straat": "Henri Nouwenstraat", "Nummer": "18", "Postcode": "3863 HV" }, "geometry": { "type": "Point", "coordinates": [ 5.466531145179784, 52.210259250620609 ] } },
{ "type": "Feature", "properties": { "Locatienummer": 106204, "Organisatie": "Ziekenhuis St. Jansdal", "Name": "Ziekenhuis St. Jansdal Polikliniek Putten", "Type": "Buitenpolikliniek", "Plaats": "Putten", "Straat": "Klaas Frisohof", "Nummer": "20", "Postcode": "3881 SZ" }, "geometry": { "type": "Point", "coordinates": [ 5.608097269676212, 52.257391008316191 ] } },
{ "type": "Feature", "properties": { "Locatienummer": 106206, "Organisatie": "Ziekenhuis St. Jansdal", "Name": "MC Ziekenhuis St. Jansdal Lelystad", "Type": "Algemeen ziekenhuis", "Plaats": "Lelystad", "Straat": "Ziekenhuisweg", "Nummer": "100", "Postcode": "8233 AA" }, "geometry": { "type": "Point", "coordinates": [ 5.476986375447889, 52.504280776012898 ] } },
{ "type": "Feature", "properties": { "Locatienummer": 106301, "Organisatie": "Onze Lieve Vrouwe Gasthuis", "Name": "Onze Lieve Vrouwe Gasthuis locatie Oost", "Type": "Algemeen ziekenhuis", "Plaats": "Amsterdam", "Straat": "Oosterpark", "Nummer": "9", "Postcode": "1091 AC" }, "geometry": { "type": "Point", "coordinates": [ 4.916915696363024, 52.358395509658727 ] } },
{ "type": "Feature", "properties": { "Locatienummer": 106302, "Organisatie": "Onze Lieve Vrouwe Gasthuis", "Name": "Onze Lieve Vrouwe Gasthuis Spuistraat", "Type": "Buitenpolikliniek", "Plaats": "Amsterdam", "Straat": "Spuistraat", "Nummer": "239A", "Postcode": "1012 VP" }, "geometry": { "type": "Point", "coordinates": [ 4.889411218998386, 52.371009666767279 ] } },
{ "type": "Feature", "properties": { "Locatienummer": 106303, "Organisatie": "Onze Lieve Vrouwe Gasthuis", "Name": "Onze Lieve Vrouwe Gasthuis IJburg", "Type": "Buitenpolikliniek", "Plaats": "Amsterdam", "Straat": "IJburglaan", "Nummer": "727", "Postcode": "1087 CH" }, "geometry": { "type": "Point", "coordinates": [ 4.991304077705474, 52.357661027102694 ] } },
{ "type": "Feature", "properties": { "Locatienummer": 106304, "Organisatie": "Onze Lieve Vrouwe Gasthuis", "Name": "Onze Lieve Vrouwe Gasthuis locatie West", "Type": "Algemeen ziekenhuis", "Plaats": "Amsterdam", "Straat": "Jan Tooropstraat", "Nummer": "164", "Postcode": "1061 AE" }, "geometry": { "type": "Point", "coordinates": [ 4.839189075379225, 52.371264216016463 ] } },
{ "type": "Feature", "properties": { "Locatienummer": 106601, "Organisatie": "Nij Smellinghe", "Name": "Nij Smellinghe", "Type": "Algemeen ziekenhuis", "Plaats": "Drachten", "Straat": "Compagnonsplein", "Nummer": "1", "Postcode": "9202 NN" }, "geometry": { "type": "Point", "coordinates": [ 6.110860935734786, 53.099235700266917 ] } },
{ "type": "Feature", "properties": { "Locatienummer": 106702, "Organisatie": "Deventer Ziekenhuis", "Name": "Deventer Ziekenhuisgroep", "Type": "Algemeen ziekenhuis", "Plaats": "Deventer", "Straat": "Nico Bolkesteinlaan", "Nummer": "75", "Postcode": "7416 SE" }, "geometry": { "type": "Point", "coordinates": [ 6.192067336250862, 52.26157828795828 ] } },
{ "type": "Feature", "properties": { "Locatienummer": 106703, "Organisatie": "Deventer Ziekenhuis", "Name": "Deventer Ziekenhuis Polikliniek Raalte", "Type": "Buitenpolikliniek", "Plaats": "Raalte", "Straat": "Vrieswijk", "Nummer": "6b", "Postcode": "8103 PB" }, "geometry": { "type": "Point", "coordinates": [ 6.273182445070823, 52.399423620347662 ] } },
{ "type": "Feature", "properties": { "Locatienummer": 106704, "Organisatie": "Deventer Ziekenhuis", "Name": "Deventer ZiekenhuisPolikliniek Rijssen", "Type": "Buitenpolikliniek", "Plaats": "Rijssen", "Straat": "Wijnand Zeeuwstraat", "Nummer": "26-101", "Postcode": "7462 DE" }, "geometry": { "type": "Point", "coordinates": [ 6.518887296561685, 52.301819461608311 ] } },
{ "type": "Feature", "properties": { "Locatienummer": 106801, "Organisatie": "Het Van Weel-Bethesda Ziekenhuis", "Name": "Het Van Weel-Bethesda Polikliniek Hellevoetsluis", "Type": "Buitenpolikliniek", "Plaats": "Hellevoetsluis", "Straat": "Vliet", "Nummer": "4", "Postcode": "3224 HE" }, "geometry": { "type": "Point", "coordinates": [ 4.148953666698936, 51.832861508507406 ] } },
{ "type": "Feature", "properties": { "Locatienummer": 106802, "Organisatie": "Het Van Weel-Bethesda Ziekenhuis", "Name": "Het Van Weel-Bethesda Dirksland", "Type": "Algemeen ziekenhuis", "Plaats": "Dirksland", "Straat": "Stationsweg", "Nummer": "22", "Postcode": "3247 BW" }, "geometry": { "type": "Point", "coordinates": [ 4.101988165669562, 51.750391567351741 ] } },
{ "type": "Feature", "properties": { "Locatienummer": 106803, "Organisatie": "Het Van Weel-Bethesda Ziekenhuis", "Name": "Het Van Weel-Bethesda Polikliniek Brielle", "Type": "Buitenpolikliniek", "Plaats": "Brielle", "Straat": "Amer", "Nummer": "21", "Postcode": "3232 HA" }, "geometry": { "type": "Point", "coordinates": [ 4.174973635583001, 51.897378814608494 ] } },
{ "type": "Feature", "properties": { "Locatienummer": 106901, "Organisatie": "Tergooiziekenhuizen", "Name": "Tergooiziekenhuizen Hilversum", "Type": "Algemeen ziekenhuis", "Plaats": "Hilversum", "Straat": "van Riebeeckweg", "Nummer": "212", "Postcode": "1213 XZ" }, "geometry": { "type": "Point", "coordinates": [ 5.201542319199771, 52.21691713204364 ] } },
{ "type": "Feature", "properties": { "Locatienummer": 106902, "Organisatie": "Tergooiziekenhuizen", "Name": "Tergooiziekenhuizen Blaricum", "Type": "Algemeen ziekenhuis", "Plaats": "Blaricum", "Straat": "Rijksstraatweg", "Nummer": "1", "Postcode": "1261 AN" }, "geometry": { "type": "Point", "coordinates": [ 5.207674022458171, 52.267653794720538 ] } },
{ "type": "Feature", "properties": { "Locatienummer": 106903, "Organisatie": "Tergooiziekenhuizen", "Name": "Tergooiziekenhuizen Buitenpoli Weesp", "Type": "Buitenpolikliniek", "Plaats": "Weesp", "Straat": "Korte Muiderweg 2A", "Nummer": null, "Postcode": "1382 LR" }, "geometry": { "type": "Point", "coordinates": [ 5.047656021775051, 52.311881947316174 ] } },
{ "type": "Feature", "properties": { "Locatienummer": 107301, "Organisatie": "Elisabeth-TweeSteden", "Name": "ETZ Tilburg", "Type": "Algemeen ziekenhuis", "Plaats": "Tilburg", "Straat": "Dr. Deelenlaan", "Nummer": "5", "Postcode": "5042 AD" }, "geometry": { "type": "Point", "coordinates": [ 5.060650989107343, 51.577209788465417 ] } },
{ "type": "Feature", "properties": { "Locatienummer": 107302, "Organisatie": "Elisabeth-TweeSteden", "Name": "ETZ Waalwijk", "Type": "Algemeen ziekenhuis", "Plaats": "Waalwijk", "Straat": "Kasteellaan", "Nummer": "2", "Postcode": "5141 BM" }, "geometry": { "type": "Point", "coordinates": [ 5.052302247737907, 51.686155080200614 ] } },
{ "type": "Feature", "properties": { "Locatienummer": 107303, "Organisatie": "Elisabeth-TweeSteden", "Name": "ETZ Oisterwijk", "Type": "Buitenpolikliniek", "Plaats": "Oisterwijk", "Straat": "Moergestelseweg", "Nummer": "32G", "Postcode": "5062 JW" }, "geometry": { "type": "Point", "coordinates": [ 5.180996846112882, 51.573465929813715 ] } },
{ "type": "Feature", "properties": { "Locatienummer": 107304, "Organisatie": "Elisabeth-TweeSteden", "Name": "ETZ Elisabeth", "Type": "Algemeen ziekenhuis", "Plaats": "Tilburg", "Straat": "Hilvarenbeekseweg", "Nummer": "60", "Postcode": "5022 GC" }, "geometry": { "type": "Point", "coordinates": [ 5.103516395337285, 51.539434459855457 ] } },
{ "type": "Feature", "properties": { "Locatienummer": 107401, "Organisatie": "Universitair Medisch Centrum Groningen", "Name": "Universitair Medisch Centrum Groningen", "Type": "Academisch ziekenhuis", "Plaats": "Groningen", "Straat": "Hanzeplein", "Nummer": "1", "Postcode": "9713 GZ" }, "geometry": { "type": "Point", "coordinates": [ 6.577089548670218, 53.221017118752499 ] } },
{ "type": "Feature", "properties": { "Locatienummer": 107402, "Organisatie": "Universitair Medisch Centrum Groningen", "Name": "Universitair Medisch Centrum Groningen Beatrixoord", "Type": "Buitenpolikliniek", "Plaats": "Haren", "Straat": "Dilgtweg", "Nummer": "5", "Postcode": "9751 ND" }, "geometry": { "type": "Point", "coordinates": [ 6.599439910967458, 53.182421099084962 ] } },
{ "type": "Feature", "properties": { "Locatienummer": 107404, "Organisatie": "Ommelander Ziekenhuis Groep", "Name": "Ommelander Ziekenhuis Groep Ziekenhuis Scheemda", "Type": "Algemeen ziekenhuis", "Plaats": "Scheemda", "Straat": "Pastorieweg", "Nummer": "1", "Postcode": "9679 BJ" }, "geometry": { "type": "Point", "coordinates": [ 6.959397058839854, 53.18287917820669 ] } },
{ "type": "Feature", "properties": { "Locatienummer": 107405, "Organisatie": "Ommelander Ziekenhuis Groep", "Name": "Ommelander Ziekenhuis Groep Servicepunt  Veendam", "Type": "Buitenpolikliniek", "Plaats": "Veendam", "Straat": "Kaap de Goede Hoop", "Nummer": "1", "Postcode": "9642 AP" }, "geometry": { "type": "Point", "coordinates": [ 6.864010530357104, 53.10315411160903 ] } },
{ "type": "Feature", "properties": { "Locatienummer": 107406, "Organisatie": "Ommelander Ziekenhuis Groep", "Name": "Ommelander Ziekenhuis Groep Servicepunt Delfzijl", "Type": "Buitenpolikliniek", "Plaats": "Delfzijl", "Straat": "Schoolstraat", "Nummer": "7", "Postcode": "9934 CD" }, "geometry": { "type": "Point", "coordinates": [ 6.92560492060703, 53.331043717216723 ] } },
{ "type": "Feature", "properties": { "Locatienummer": 107501, "Organisatie": "Universitair Medisch Centrum St. Radboud", "Name": "Universitair Medisch Centrum St. Radboud", "Type": "Academisch ziekenhuis", "Plaats": "Nijmegen", "Straat": "G. Grooteplein-Zuid", "Nummer": "10", "Postcode": "6525 GA" }, "geometry": { "type": "Point", "coordinates": [ 5.859819086185372, 51.823608590713775 ] } },
{ "type": "Feature", "properties": { "Locatienummer": 107502, "Organisatie": "Universitair Medisch Centrum St. Radboud", "Name": "Radboud UMC Amalia kinderziekenhuis", "Type": "Kinderziekenhuis", "Plaats": "Nijmegen", "Straat": "Geert Grooteplein-Zuid", "Nummer": "10", "Postcode": "6525 GA" }, "geometry": { "type": "Point", "coordinates": [ 5.859819086185372, 51.823608590713775 ] } },
{ "type": "Feature", "properties": { "Locatienummer": 107601, "Organisatie": "Universitair Medisch Centrum Utrecht", "Name": "Universitair Medisch Centrum Utrecht", "Type": "Academisch ziekenhuis", "Plaats": "Utrecht", "Straat": "Heidelberglaan", "Nummer": "100", "Postcode": "3584 CX" }, "geometry": { "type": "Point", "coordinates": [ 5.179602311418494, 52.08602494781185 ] } },
{ "type": "Feature", "properties": { "Locatienummer": 107602, "Organisatie": "Universitair Medisch Centrum Utrecht", "Name": "Universitair Medisch Centrum Utrecht Wilhelmina Kinderziekenhuis", "Type": "Kinderziekenhuis", "Plaats": "Utrecht", "Straat": "Lundlaan", "Nummer": "6", "Postcode": "3584 EA" }, "geometry": { "type": "Point", "coordinates": [ 5.181274805713503, 52.090360121407421 ] } },
{ "type": "Feature", "properties": { "Locatienummer": 107701, "Organisatie": "VieCuri Medisch Centrum", "Name": "VieCuri Medisch Centrum Venlo", "Type": "Algemeen ziekenhuis", "Plaats": "Venlo", "Straat": "Tegelseweg", "Nummer": "210", "Postcode": "5912 BL" }, "geometry": { "type": "Point", "coordinates": [ 6.154016628829923, 51.356752575153273 ] } },
{ "type": "Feature", "properties": { "Locatienummer": 107702, "Organisatie": "VieCuri Medisch Centrum", "Name": "VieCuri Medisch Centrum Venray", "Type": "Algemeen ziekenhuis", "Plaats": "Venray", "Straat": "Merseloseweg", "Nummer": "130", "Postcode": "5801CE" }, "geometry": { "type": "Point", "coordinates": [ 5.959479682807539, 51.527212002317881 ] } },
{ "type": "Feature", "properties": { "Locatienummer": 107703, "Organisatie": "VieCuri Medisch Centrum", "Name": "VieCuri Medisch Centrum Regiopoli Horst", "Type": "Buitenpolikliniek", "Plaats": "Horst", "Straat": "Westsingel", "Nummer": "100", "Postcode": "5961 DH" }, "geometry": { "type": "Point", "coordinates": [ 6.046810327797473, 51.449923250199909 ] } },
{ "type": "Feature", "properties": { "Locatienummer": 107704, "Organisatie": "VieCuri Medisch Centrum", "Name": "VieCuri Medisch Centrum Regiopoli Panningen", "Type": "Buitenpolikliniek", "Plaats": "Panningen", "Straat": "John F. Kennedylaan", "Nummer": "321", "Postcode": "5981 WZ" }, "geometry": { "type": "Point", "coordinates": [ 5.969342784530427, 51.328482073136861 ] } },
{ "type": "Feature", "properties": { "Locatienummer": 107705, "Organisatie": "VieCuri Medisch Centrum", "Name": "VieCuri Medisch Centrum Regiopoli Reuver", "Type": "Buitenpolikliniek", "Plaats": "Reuver", "Straat": "Broeklaan", "Nummer": "4", "Postcode": "5953 NB" }, "geometry": { "type": "Point", "coordinates": [ 6.081617534822082, 51.282346174366197 ] } },
{ "type": "Feature", "properties": { "Locatienummer": 107801, "Organisatie": "Franciscus Gasthuis & Vlietland Groep", "Name": "Franciscus Vlietland  Schiedam", "Type": "Algemeen ziekenhuis", "Plaats": "Schiedam", "Straat": "Vlietlandplein", "Nummer": "2", "Postcode": "3118 JH" }, "geometry": { "type": "Point", "coordinates": [ 4.37995084488026, 51.922506120559973 ] } },
{ "type": "Feature", "properties": { "Locatienummer": 107802, "Organisatie": "Franciscus Gasthuis & Vlietland Groep", "Name": "Franciscus Gasthuis Locatie Het Oogziekenhuis", "Type": "Buitenpolikliniek", "Plaats": "Rotterdam", "Straat": "Schiedamse Vest", "Nummer": "180", "Postcode": "3011 BH" }, "geometry": { "type": "Point", "coordinates": [ 4.480005708239534, 51.914997355048705 ] } },
{ "type": "Feature", "properties": { "Locatienummer": 107803, "Organisatie": "Franciscus Gasthuis & Vlietland Groep", "Name": "Franciscus Maassluis", "Type": "Buitenpolikliniek", "Plaats": "Maassluis", "Straat": "De Vloot", "Nummer": "206", "Postcode": "3144 PK" }, "geometry": { "type": "Point", "coordinates": [ 4.242802047537752, 51.929835299328232 ] } },
{ "type": "Feature", "properties": { "Locatienummer": 107804, "Organisatie": "Franciscus Gasthuis & Vlietland Groep", "Name": "Franciscus Berkel", "Type": "Buitenpolikliniek", "Plaats": "Berkel Rodenrijs", "Straat": "Boerhaavestraat", "Nummer": "19", "Postcode": "2652 EP" }, "geometry": { "type": "Point", "coordinates": [ 4.474378280173869, 51.996679028574249 ] } },
{ "type": "Feature", "properties": { "Locatienummer": 107805, "Organisatie": "Franciscus Gasthuis & Vlietland Groep", "Name": "Franciscus Gasthuis", "Type": "Algemeen ziekenhuis", "Plaats": "Rotterdam", "Straat": "Kleiweg", "Nummer": "500", "Postcode": "3045 PM" }, "geometry": { "type": "Point", "coordinates": [ 4.461817250264945, 51.941354378205276 ] } },
{ "type": "Feature", "properties": { "Locatienummer": 107807, "Organisatie": "Franciscus Gasthuis & Vlietland Groep", "Name": "Franciscus  Haven", "Type": "Buitenpolikliniek", "Plaats": "Rotterdam", "Straat": "Haringvliet", "Nummer": "2", "Postcode": "3011 TF" }, "geometry": { "type": "Point", "coordinates": [ 4.498298551624661, 51.920494406654939 ] } },
{ "type": "Feature", "properties": { "Locatienummer": 108001, "Organisatie": "Dijklander Ziekenhuis", "Name": "Waterlandziekenhuis", "Type": "Algemeen ziekenhuis", "Plaats": "Purmerend", "Straat": "Waterlandlaan", "Nummer": "250", "Postcode": "1441 RN" }, "geometry": { "type": "Point", "coordinates": [ 4.962660824899985, 52.500688738926051 ] } },
{ "type": "Feature", "properties": { "Locatienummer": 108002, "Organisatie": "Dijklander Ziekenhuis", "Name": "Waterlandziekenhuis Behandelcentrum Waterland-Oost", "Type": "Buitenpolikliniek", "Plaats": "Volendam", "Straat": "Heideweg", "Nummer": "1b", "Postcode": "1132 DA" }, "geometry": { "type": "Point", "coordinates": [ 5.056653420043555, 52.492054325432598 ] } },
{ "type": "Feature", "properties": { "Locatienummer": 108003, "Organisatie": "Dijklander Ziekenhuis", "Name": "Westfries Gasthuis", "Type": "Algemeen ziekenhuis", "Plaats": "Hoorn Nh", "Straat": "Fr. Maelsonstraat", "Nummer": "3", "Postcode": "1624 NP" }, "geometry": { "type": "Point", "coordinates": [ 5.054144222000923, 52.647176103463735 ] } },
{ "type": "Feature", "properties": { "Locatienummer": 108004, "Organisatie": "Dijklander Ziekenhuis", "Name": "Westfries Gasthuis Enkhuizen", "Type": "Buitenpolikliniek", "Plaats": "Enkhuizen", "Straat": "Molenweg", "Nummer": "9b", "Postcode": "1601 SR" }, "geometry": { "type": "Point", "coordinates": [ 5.281764098079102, 52.703341622644373 ] } },
{ "type": "Feature", "properties": { "Locatienummer": 108201, "Organisatie": "Wilhelmina Ziekenhuis Assen", "Name": "Wilhelmina Ziekenhuis Assen", "Type": "Algemeen ziekenhuis", "Plaats": "Assen", "Straat": "Europaweg-Zuid", "Nummer": "1", "Postcode": "9401 RK" }, "geometry": { "type": "Point", "coordinates": [ 6.56480072503857, 52.983547504490915 ] } },
{ "type": "Feature", "properties": { "Locatienummer": 108202, "Organisatie": "Wilhelmina Ziekenhuis Assen", "Name": "Het Medisch Centrum Wilhelmina", "Type": "Buitenpolikliniek", "Plaats": "Assen", "Straat": "Borgstee", "Nummer": "17", "Postcode": "9403 TS" }, "geometry": { "type": "Point", "coordinates": [ 6.570451123466939, 53.013373511700799 ] } },
{ "type": "Feature", "properties": { "Locatienummer": 108301, "Organisatie": "Zaans Medisch Centrum", "Name": "Zaans Medisch Centrum", "Type": "Algemeen ziekenhuis", "Plaats": "Zaandam", "Straat": "Koningin Julianaplein", "Nummer": "58", "Postcode": "1502 DV" }, "geometry": { "type": "Point", "coordinates": [ 4.82555039632639, 52.45335666814686 ] } },
{ "type": "Feature", "properties": { "Locatienummer": 108302, "Organisatie": "Zaans Medisch Centrum", "Name": "Zaans Medisch Centrum Polikliniek Saendelft", "Type": "Buitenpolikliniek", "Plaats": "Assendelft", "Straat": "Kaaikhof", "Nummer": "69", "Postcode": "1567 JP" }, "geometry": { "type": "Point", "coordinates": [ 4.752237116648319, 52.488676501946827 ] } },
{ "type": "Feature", "properties": { "Locatienummer": 108401, "Organisatie": "Ziekenhuis Amstelland", "Name": "Ziekenhuis Amstelland", "Type": "Algemeen ziekenhuis", "Plaats": "Amstelveen", "Straat": "Laan van de Helende Meesters", "Nummer": "8", "Postcode": "1186 AM" }, "geometry": { "type": "Point", "coordinates": [ 4.873349144409761, 52.293484248684187 ] } },
{ "type": "Feature", "properties": { "Locatienummer": 108402, "Organisatie": "Ziekenhuis Amstelland", "Name": "Ziekenhuis Amstelland Buitenpolikliniek Uithoorn", "Type": "Buitenpolikliniek", "Plaats": "Uithoorn", "Straat": "Koningin Máximalaan", "Nummer": "30", "Postcode": "1421 LC" }, "geometry": { "type": "Point", "coordinates": [ 4.807704465575461, 52.24548175433786 ] } },
{ "type": "Feature", "properties": { "Locatienummer": 108501, "Organisatie": "Ziekenhuis Bernhoven", "Name": "Ziekenhuis Bernhoven Oss", "Type": "Buitenpolikliniek", "Plaats": "Oss", "Straat": "Gezondheidslaan", "Nummer": "1a", "Postcode": "5342 JW" }, "geometry": { "type": "Point", "coordinates": [ 5.522929483124495, 51.757698431423002 ] } },
{ "type": "Feature", "properties": { "Locatienummer": 108503, "Organisatie": "Ziekenhuis Bernhoven", "Name": "Ziekenhuis Bernhoven Uden", "Type": "Algemeen ziekenhuis", "Plaats": "Uden", "Straat": "Nistelrodeseweg", "Nummer": "10", "Postcode": "5406 PT" }, "geometry": { "type": "Point", "coordinates": [ 5.605559048826193, 51.673791744856779 ] } },
{ "type": "Feature", "properties": { "Locatienummer": 108601, "Organisatie": "Ziekenhuis De Gelderse Vallei", "Name": "Ziekenhuis De Gelderse Vallei Ede", "Type": "Algemeen ziekenhuis", "Plaats": "Ede", "Straat": "Willy Brandtlaan", "Nummer": "10", "Postcode": "6716 RP" }, "geometry": { "type": "Point", "coordinates": [ 5.645560307449396, 52.022440887863048 ] } },
{ "type": "Feature", "properties": { "Locatienummer": 108602, "Organisatie": "Ziekenhuis De Gelderse Vallei", "Name": "Ziekenhuis De Gelderse Vallei Polikliniek Barneveld", "Type": "Buitenpolikliniek", "Plaats": "Barneveld", "Straat": "Klaverweide", "Nummer": "1a", "Postcode": "3773 AW" }, "geometry": { "type": "Point", "coordinates": [ 5.599086494088938, 52.139854965351972 ] } },
{ "type": "Feature", "properties": { "Locatienummer": 108603, "Organisatie": "Ziekenhuis De Gelderse Vallei", "Name": "Ziekenhuis De Gelderse Vallei Polikliniek Veenendaal", "Type": "Buitenpolikliniek", "Plaats": "Veenendaal", "Straat": "Spoorlaan", "Nummer": "5", "Postcode": "3903 XS" }, "geometry": { "type": "Point", "coordinates": [ 5.549490206307506, 52.018406224426506 ] } },
{ "type": "Feature", "properties": { "Locatienummer": 108604, "Organisatie": "Ziekenhuis De Gelderse Vallei", "Name": "Ziekenhuis De Gelderse Vallei Polikliniek Wageningen", "Type": "Buitenpolikliniek", "Plaats": "Wageningen", "Straat": "Plantsoen", "Nummer": "57b", "Postcode": "6701 AS" }, "geometry": { "type": "Point", "coordinates": [ 5.664747550513395, 51.968279230471161 ] } },
{ "type": "Feature", "properties": { "Locatienummer": 108701, "Organisatie": "Ziekenhuis Rivierenland", "Name": "Ziekenhuis Rivierenland", "Type": "Algemeen ziekenhuis", "Plaats": "Tiel", "Straat": "Pres. Kennedylaan", "Nummer": "1", "Postcode": "4002 WP" }, "geometry": { "type": "Point", "coordinates": [ 5.41558668431278, 51.889363309465708 ] } },
{ "type": "Feature", "properties": { "Locatienummer": 108702, "Organisatie": "Ziekenhuis Rivierenland", "Name": "Ziekenhuis Rivierenland Barbara Polikliniek Culemborg", "Type": "Buitenpolikliniek", "Plaats": "Culemborg", "Straat": "Elisabethdreef", "Nummer": "4", "Postcode": "4101 KL" }, "geometry": { "type": "Point", "coordinates": [ 5.22862349625684, 51.958649327367404 ] } },
{ "type": "Feature", "properties": { "Locatienummer": 108703, "Organisatie": "Ziekenhuis Rivierenland", "Name": "Ziekenhuis Rivierenland Waterpoort Polikliniek Beneden Leeuwen", "Type": "Buitenpolikliniek", "Plaats": "Beneden Leeuwen", "Straat": "Beatrixstraat", "Nummer": "20", "Postcode": "6658 EK" }, "geometry": { "type": "Point", "coordinates": [ 5.519077237981949, 51.88160757331147 ] } },
{ "type": "Feature", "properties": { "Locatienummer": 108801, "Organisatie": "ZorgSaam Zeeuws-Vlaanderen", "Name": "Zorgsaam Zeeuw-Vlaanderen Locatie De Honte", "Type": "Algemeen ziekenhuis", "Plaats": "Terneuzen", "Straat": "Wielingenlaan", "Nummer": "2", "Postcode": "4535 PA" }, "geometry": { "type": "Point", "coordinates": [ 3.861353019615689, 51.308957218109867 ] } },
{ "type": "Feature", "properties": { "Locatienummer": 108802, "Organisatie": "ZorgSaam Zeeuws-Vlaanderen", "Name": "Zorgsaam Zeeuw-Vlaanderen Locatie Antonius", "Type": "Algemeen ziekenhuis", "Plaats": "Oostburg", "Straat": "Pastoor van Genklaan", "Nummer": "6", "Postcode": "4501 AJ" }, "geometry": { "type": "Point", "coordinates": [ 3.481855088835178, 51.32499633345914 ] } },
{ "type": "Feature", "properties": { "Locatienummer": 108803, "Organisatie": "ZorgSaam Zeeuws-Vlaanderen", "Name": "Zorgsaam Zeeuw-Vlaanderen Locatie Liduina", "Type": "Buitenpolikliniek", "Plaats": "Hulst", "Straat": "Lyceumstraat", "Nummer": "20", "Postcode": "4561 HV" }, "geometry": { "type": "Point", "coordinates": [ 4.050709506591977, 51.28701246334159 ] } },
{ "type": "Feature", "properties": { "Locatienummer": 108805, "Organisatie": "ZorgSaam Zeeuws-Vlaanderen", "Name": "Zorgsaam Zeeuw-Vlaanderen Cardiologie centrum Middelburg", "Type": "Buitenpolikliniek", "Plaats": "Middelburg", "Straat": "Buitenruststraat", "Nummer": "16", "Postcode": "4337 EH" }, "geometry": { "type": "Point", "coordinates": [ 3.617893582202604, 51.491983976593943 ] } },
{ "type": "Feature", "properties": { "Locatienummer": 109001, "Organisatie": "Ziekenhuisgroep Twente", "Name": "Ziekenhuisgroep Twente Locatie Hengelo", "Type": "Algemeen ziekenhuis", "Plaats": "Hengelo Ov", "Straat": "Geerdinksweg", "Nummer": "141", "Postcode": "7555 DL" }, "geometry": { "type": "Point", "coordinates": [ 6.770558153569127, 52.263887695423023 ] } },
{ "type": "Feature", "properties": { "Locatienummer": 109002, "Organisatie": "Ziekenhuisgroep Twente", "Name": "Ziekenhuisgroep Twente Locatie Almelo", "Type": "Algemeen ziekenhuis", "Plaats": "Almelo", "Straat": "Zilvermeeuw", "Nummer": "1", "Postcode": "7609 PP" }, "geometry": { "type": "Point", "coordinates": [ 6.640803450698467, 52.33715500220125 ] } },
{ "type": "Feature", "properties": { "Locatienummer": 109005, "Organisatie": "Ziekenhuisgroep Twente", "Name": "Ziekenhuisgroep Twente Buitenpolikliniek Rijssen", "Type": "Buitenpolikliniek", "Plaats": "Rijssen", "Straat": "Wijnand Zeeuwstraat", "Nummer": "26-101", "Postcode": "7462 DE" }, "geometry": { "type": "Point", "coordinates": [ 6.518887296561685, 52.301819461608311 ] } },
{ "type": "Feature", "properties": { "Locatienummer": 109007, "Organisatie": "Ziekenhuisgroep Twente", "Name": "Ziekenhuisgroep Twente Buitenpost Ootmarsum", "Type": "Buitenpolikliniek", "Plaats": "Ootmarsum", "Straat": "De Meijer", "Nummer": "1", "Postcode": "7631 AM" }, "geometry": { "type": "Point", "coordinates": [ 6.897101226265586, 52.409910344431999 ] } },
{ "type": "Feature", "properties": { "Locatienummer": 109008, "Organisatie": "Ziekenhuisgroep Twente", "Name": "Ziekenhuisgroep Twente Buitenpost Geesteren", "Type": "Buitenpolikliniek", "Plaats": "Geesteren", "Straat": "De aanleg", "Nummer": "17", "Postcode": "7678VZ" }, "geometry": { "type": "Point", "coordinates": [ 6.734824593450971, 52.420865969341271 ] } },
{ "type": "Feature", "properties": { "Locatienummer": 109201, "Organisatie": "Zorgpartners Friesland", "Name": "Medisch Centrum Leeuwarden", "Type": "Algemeen ziekenhuis", "Plaats": "Leeuwarden", "Straat": "H. Dunantweg", "Nummer": "2", "Postcode": "8934 AD" }, "geometry": { "type": "Point", "coordinates": [ 5.806503632172105, 53.188920404199486 ] } },
{ "type": "Feature", "properties": { "Locatienummer": 109202, "Organisatie": "Zorgpartners Friesland", "Name": "Medisch Centrum Leeuwarden Harlingen", "Type": "Buitenpolikliniek", "Plaats": "Harlingen", "Straat": "Achlumerdijk", "Nummer": "2", "Postcode": "8862 AJ" }, "geometry": { "type": "Point", "coordinates": [ 5.429444339667078, 53.162177115499574 ] } },
{ "type": "Feature", "properties": { "Locatienummer": 109203, "Organisatie": "Zorgpartners Friesland", "Name": "De Tjongerschans Polikliniek Steenwijk", "Type": "Buitenpolikliniek", "Plaats": "Steenwijk", "Straat": "Mr. Zigher ter Steghestraat", "Nummer": "9", "Postcode": "8331KG" }, "geometry": { "type": "Point", "coordinates": [ 6.111332650213407, 52.790857272964566 ] } },
{ "type": "Feature", "properties": { "Locatienummer": 109204, "Organisatie": "Zorgpartners Friesland", "Name": "De Tjongerschans Polikliniek Sportstad", "Type": "Buitenpolikliniek", "Plaats": "Heerenveen", "Straat": "Abe Lenstra Boulevard", "Nummer": "21", "Postcode": "8448 JA" }, "geometry": { "type": "Point", "coordinates": [ 5.935577536031304, 52.958084992080636 ] } },
{ "type": "Feature", "properties": { "Locatienummer": 109205, "Organisatie": "Zorgpartners Friesland", "Name": "De Tjongerschans Polikliniek Lemmer", "Type": "Buitenpolikliniek", "Plaats": "Lemmer", "Straat": "Van Rijgersmapark", "Nummer": "1", "Postcode": "8531 JA" }, "geometry": { "type": "Point", "coordinates": [ 5.698047249950983, 52.846051290336895 ] } },
{ "type": "Feature", "properties": { "Locatienummer": 109206, "Organisatie": "Zorgpartners Friesland", "Name": "De Tjongerschans Heerenveen", "Type": "Algemeen ziekenhuis", "Plaats": "Heerenveen", "Straat": "Thialfweg", "Nummer": "44", "Postcode": "8441 PW" }, "geometry": { "type": "Point", "coordinates": [ 5.917699019491201, 52.966145668697862 ] } },
{ "type": "Feature", "properties": { "Locatienummer": 109301, "Organisatie": "Treant Zorggroep", "Name": "Ziekehuislocatie Scheper Emmen", "Type": "Algemeen ziekenhuis", "Plaats": "Emmen", "Straat": "Boermarkeweg", "Nummer": "60", "Postcode": "7824 AA" }, "geometry": { "type": "Point", "coordinates": [ 6.913568435761222, 52.786084307066083 ] } },
{ "type": "Feature", "properties": { "Locatienummer": 109302, "Organisatie": "Treant Zorggroep", "Name": "Ziekenhuislocatie Bethesda Hoogeveen", "Type": "Algemeen ziekenhuis", "Plaats": "Hoogeveen", "Straat": "Dr. G.H. Amshoffweg", "Nummer": "1", "Postcode": "7909 AA" }, "geometry": { "type": "Point", "coordinates": [ 6.460285760637236, 52.726787055492458 ] } },
{ "type": "Feature", "properties": { "Locatienummer": 109303, "Organisatie": "Treant Zorggroep", "Name": "Ziekenhuislocatie Refaja Stadskanaal", "Type": "Algemeen ziekenhuis", "Plaats": "Stadskanaal", "Straat": "Boerhaavestraat", "Nummer": "1", "Postcode": "9501 HE" }, "geometry": { "type": "Point", "coordinates": [ 6.935810112603031, 53.001928929308264 ] } },
{ "type": "Feature", "properties": { "Locatienummer": 109304, "Organisatie": "Treant Zorggroep", "Name": "Buitenpoli Veenkade", "Type": "Buitenpolikliniek", "Plaats": "Veendam", "Straat": "Kaap de Goede Hoop", "Nummer": "1", "Postcode": "9642 AP" }, "geometry": { "type": "Point", "coordinates": [ 6.864010530357104, 53.10315411160903 ] } },
{ "type": "Feature", "properties": { "Locatienummer": 109801, "Organisatie": "Antoni van Leeuwenhoek", "Name": "Antoni van Leeuwenhoek", "Type": "Algemeen ziekenhuis", "Plaats": "Amsterdam", "Straat": "Plesmanlaan", "Nummer": "121", "Postcode": "1066 CX" }, "geometry": { "type": "Point", "coordinates": [ 4.826422216372323, 52.350865107500809 ] } },
{ "type": "Feature", "properties": { "Locatienummer": 109901, "Organisatie": "Prinses Máxima Centrum voor kinderoncologie", "Name": "Prinses Máxima Centrum", "Type": "Kinderziekenhuis", "Plaats": "Utrecht", "Straat": "Heidelberglaan", "Nummer": "25", "Postcode": "3584 CS" }, "geometry": { "type": "Point", "coordinates": [ 5.1833197607929, 52.089887307849111 ] } },
{ "type": "Feature", "properties": { "Locatienummer": 200001, "Organisatie": "Universitair Medisch Centrum St. Radboud", "Name": "Radboud UMC Dekkerswald", "Type": "Algemeen ziekenhuis", "Plaats": null, "Straat": "Nijmeegsebaan", "Nummer": "31", "Postcode": "6561 KE" }, "geometry": { "type": "Point", "coordinates": [ 5.894962539895242, 51.801502773161197 ] } }
]
}
